RestaurantID,Name,CuisineType,Pricing_for_2,Restaurant_Phone,OperatingHours,LocationID,ActiveFlag,OpenStatus,Locality,Restaurant_Address,Latitude,Longitude,CreatedDate,ModifiedDate
1,Spice Kitchen,"Japanese, Thai, Pizza",485,9890779946,7:00 AM - 22:00 PM,1,Yes,Open,Behl Circle," Behl Circle, Delhi - 780487",10.938613912778951,80.74586795201448,2023-05-08 16:08:04,2024-11-19 07:00:07
2,Royal Bistro,Thai,1234,9746412689,7:00 AM - 21:00 PM,1,No,Closed,Nayar Ganj,"First Floor, Nayar Ganj, Delhi - 780487",29.307772697334187,88.72282799600123,2022-05-02 09:11:33,2023-05-30 19:56:41
3,Blue Cafe,"Pizza, Japanese",1857,9106977991,8:00 AM - 22:00 PM,1,Yes,Open,Goyal Road,"Third Floor, Goyal Road, Delhi - 780487",18.335315082325366,73.13893971962636,2023-12-09 11:24:19,2024-06-25 10:52:12
4,Crystal Eatery,Chinese,978,9203848421,9:00 AM - 23:00 PM,1,Yes,Open,Mukherjee Street,"Second Floor, Mukherjee Street, Delhi - 780487",26.02880011591322,91.74351220198355,2022-06-07 01:25:51,2024-05-14 01:16:33
5,Emerald Bites,"Italian, Desserts, Chinese",1330,9414797776,12:00 AM - 21:00 PM,1,Yes,Open,Badami Marg,"Second Floor, Badami Marg, Delhi - 780487",25.25868264149745,88.81552592393606,2022-11-16 19:33:26,2024-09-07 04:16:36
6,Royal House,Lebanese,363,9349957310,7:00 AM - 20:00 PM,1,Yes,Open,Arya Circle,"Second Floor, Arya Circle, Delhi - 780487",21.63958082915832,92.51385268059342,2023-09-12 21:16:57,2024-09-27 10:26:04
7,Taste Eatery,"Mexican, Japanese",1637,9833953718,12:00 AM - 17:00 PM,1,Yes,Open,Chawla," Chawla, Delhi - 780487",26.941366015354163,83.94969348919817,2022-12-29 11:22:02,2024-07-26 23:16:05
8,Flavors Restaurant,"Desserts, Japanese",1510,9838908273,11:00 AM - 18:00 PM,1,Yes,Open,Balakrishnan Street,"Second Floor, Balakrishnan Street, Delhi - 780487",33.01127606954244,90.8547974746453,2022-10-11 01:45:12,2022-12-11 09:42:42
9,Flavors Junction,Mughlai,1021,9387484583,7:00 AM - 18:00 PM,1,Yes,Open,Madan Road," Madan Road, Delhi - 780487",33.989934693001935,77.68405349679655,2022-08-19 22:47:00,2022-09-19 14:20:35
10,Diamond Bites,"Fast Food, Continental",742,9249926919,8:00 AM - 22:00 PM,1,Yes,Open,Padmanabhan Marg," Padmanabhan Marg, Delhi - 780487",24.13813685828488,90.02724432267196,2023-11-26 14:06:45,2024-08-03 17:41:02
11,Blue Hub,"Desserts, Street Food, Thai",483,9647099690,10:00 AM - 17:00 PM,1,Yes,Open,Garg Street,"Ground Floor, Garg Street, Delhi - 780487",33.54420496226665,73.06361966739286,2022-11-13 02:07:05,2023-07-03 22:28:47
12,Taste Corner,"Beverages, Chinese, Desserts",981,9739830322,10:00 AM - 21:00 PM,1,No,Closed,Jani Chowk,"Second Floor, Jani Chowk, Delhi - 780487",36.75548862631765,93.27526049879492,2023-11-01 16:54:51,2023-12-03 00:29:16
13,Royal House,"Italian, Ice Cream, Japanese",1774,9788227492,9:00 AM - 17:00 PM,1,Yes,Open,Deep Ganj,"Second Floor, Deep Ganj, Delhi - 780487",21.095145319537867,81.65381181569884,2023-09-15 00:23:43,2024-12-03 19:08:09
14,Emerald Hub,"Japanese, Bakery, Mediterranean",1239,9214257751,12:00 AM - 19:00 PM,1,Yes,Open,Raman Road," Raman Road, Delhi - 780487",26.181930173994637,73.06356111709208,2022-07-08 16:17:58,2024-08-25 14:37:49
15,Crystal Restaurant,"Bakery, North Indian, Mughlai",1200,9120912992,7:00 AM - 19:00 PM,1,Yes,Open,Randhawa Road,"Second Floor, Randhawa Road, Delhi - 780487",15.39200746187132,75.5768839643685,2023-01-24 15:21:04,2023-12-28 11:57:54
16,Silver Bistro,Cafe,1871,9174316370,11:00 AM - 23:00 PM,1,Yes,Open,Mannan,"First Floor, Mannan, Delhi - 780487",12.149030763393075,82.26931189471878,2024-02-21 05:27:43,2024-07-22 17:06:31
17,Golden Restaurant,"Bakery, Beverages",633,9679064766,12:00 AM - 22:00 PM,1,Yes,Open,Sankaran Marg,"First Floor, Sankaran Marg, Delhi - 780487",29.218110006318362,80.0912301649266,2023-01-15 14:07:36,2023-03-01 03:49:11
18,Diamond House,"Fast Food, Bakery",1124,9229927269,8:00 AM - 18:00 PM,1,Yes,Open,Swamy Circle,"Ground Floor, Swamy Circle, Delhi - 780487",18.272098414705695,85.49621391195402,2023-06-28 02:02:05,2024-12-30 05:32:29
19,Flavors Garden,North Indian,345,9860038427,12:00 AM - 17:00 PM,1,Yes,Open,Dhawan Ganj,"First Floor, Dhawan Ganj, Delhi - 780487",10.36808958082098,69.59683995241367,2022-04-23 05:21:46,2022-06-07 16:08:28
20,Green Bistro,"Thai, Japanese, Cafe",638,9678998028,8:00 AM - 22:00 PM,1,Yes,Open,Wadhwa Nagar," Wadhwa Nagar, Delhi - 780487",25.225380171850276,75.63757127039794,2023-03-17 08:37:35,2024-01-14 15:42:46
21,Red Corner,"Mexican, Italian",398,9807577342,10:00 AM - 19:00 PM,1,Yes,Open,Som Road,"Third Floor, Som Road, Delhi - 780487",20.404186460652355,93.36253916595217,2023-06-08 04:20:00,2023-06-27 01:16:46
22,Royal House,"Italian, South Indian, Desserts",1691,9464323393,7:00 AM - 18:00 PM,1,Yes,Open,Bawa Ganj,"First Floor, Bawa Ganj, Delhi - 780487",13.954100126471698,81.50791679063592,2023-09-18 12:34:30,2024-09-02 06:38:57
23,Blue Restaurant,"Fast Food, Thai",1990,9180943908,10:00 AM - 23:00 PM,1,Yes,Open,Shetty Zila," Shetty Zila, Delhi - 780487",11.258934863486731,87.3187367236578,2023-02-04 07:05:21,2024-08-16 16:56:47
24,Golden Junction,Chinese,1743,9353810544,8:00 AM - 20:00 PM,1,Yes,Open,Bajaj Street,"Third Floor, Bajaj Street, Delhi - 780487",22.455665804754354,93.38576874956266,2023-08-08 22:41:16,2024-02-19 00:46:20
25,Ruby Kitchen,Desserts,204,9519212169,9:00 AM - 23:00 PM,1,Yes,Open,Hayre Path,"Third Floor, Hayre Path, Delhi - 780487",16.729277485250073,88.58768742778464,2023-05-08 08:55:06,2023-07-25 07:54:08
26,Emerald Corner,"Cafe, Continental, Mexican",807,9333754555,7:00 AM - 21:00 PM,1,Yes,Open,Sane Zila," Sane Zila, Delhi - 780487",10.179961087114263,77.65341731892578,2023-12-16 20:49:26,2025-01-11 01:27:57
27,Royal Garden,"Bakery, Burger",522,9161073976,11:00 AM - 17:00 PM,1,Yes,Open,Bora Street,"First Floor, Bora Street, Delhi - 780487",10.400822914950737,70.64028264937787,2024-02-13 09:37:01,2024-05-13 23:44:08
28,Pearl Cafe,"Italian, Pizza",704,9721609600,11:00 AM - 17:00 PM,1,Yes,Open,Seshadri Street," Seshadri Street, Delhi - 780487",10.793915440450364,87.46800384569052,2023-03-13 17:34:23,2024-06-19 21:40:51
29,Silver Table,"Japanese, Mexican",1571,9869005091,9:00 AM - 18:00 PM,1,Yes,Open,Padmanabhan Chowk,"Second Floor, Padmanabhan Chowk, Delhi - 780487",19.956946726304633,87.87675586550718,2023-02-19 12:04:24,2024-12-20 04:54:30
30,Urban Bites,"Chinese, North Indian",1138,9766964667,11:00 AM - 17:00 PM,1,Yes,Open,Bhavsar Nagar,"Ground Floor, Bhavsar Nagar, Delhi - 780487",24.09892459976752,83.14300801509225,2022-11-17 10:04:36,2024-06-27 02:38:19
31,Taste Hub,"Chinese, Thai",956,9406002884,8:00 AM - 20:00 PM,1,Yes,Open,Srinivas Nagar," Srinivas Nagar, Delhi - 780487",28.943365812551235,86.16340021147587,2022-04-18 06:46:48,2024-03-03 23:46:36
32,Crystal House,"North Indian, Ice Cream, Lebanese",1558,9211225158,8:00 AM - 19:00 PM,1,Yes,Open,Morar Nagar,"Ground Floor, Morar Nagar, Delhi - 780487",34.37961104456671,89.89599632765751,2024-02-20 04:50:00,2024-07-23 23:12:02
33,Taste Diner,"Burger, Mexican",1669,9468164906,8:00 AM - 22:00 PM,1,Yes,Open,Bhatnagar Road,"Second Floor, Bhatnagar Road, Delhi - 780487",23.157944496461226,75.86951174659548,2023-07-17 23:39:43,2024-02-11 19:29:22
34,Ruby Junction,Chinese,1499,9554811020,9:00 AM - 17:00 PM,1,No,Closed,Bhavsar Circle,"Ground Floor, Bhavsar Circle, Delhi - 780487",18.139850927268576,72.4349013130336,2023-02-02 20:40:09,2023-03-31 23:28:07
35,Urban Restaurant,"Fast Food, Ice Cream, Beverages",1348,9110382761,7:00 AM - 17:00 PM,1,No,Closed,Bhatt Street,"First Floor, Bhatt Street, Delhi - 780487",24.331236444801256,92.52768781774577,2023-06-15 11:30:03,2023-12-29 09:48:25
36,Silver Table,Beverages,461,9144913399,9:00 AM - 19:00 PM,1,Yes,Open,Halder Marg,"Ground Floor, Halder Marg, Delhi - 780487",34.64859938657306,74.69768516959998,2024-02-23 02:35:41,2024-11-29 12:57:24
37,Flavors House,Street Food,1797,9701170349,10:00 AM - 21:00 PM,1,Yes,Open,Saha Marg,"First Floor, Saha Marg, Delhi - 780487",35.43230361903105,75.4588508351482,2022-08-01 01:10:36,2023-08-01 18:28:25
38,Taste Corner,Beverages,250,9292587044,12:00 AM - 19:00 PM,1,Yes,Open,Dalal,"Third Floor, Dalal, Delhi - 780487",31.82526605696446,93.36902801011422,2023-10-08 18:19:19,2024-08-14 19:13:55
39,Crystal Cafe,"Mediterranean, Italian",983,9141580226,10:00 AM - 18:00 PM,1,Yes,Open,Jhaveri Chowk,"First Floor, Jhaveri Chowk, Delhi - 780487",32.24432888343033,81.84165735008379,2023-03-01 19:22:53,2024-09-11 07:48:09
40,Urban Junction,Thai,248,9808705238,8:00 AM - 20:00 PM,1,Yes,Open,Bansal Road,"Second Floor, Bansal Road, Delhi - 780487",16.535209381871717,70.6819625456235,2022-03-22 18:59:22,2024-03-23 16:45:49
41,Urban Eatery,"Bakery, Desserts, Ice Cream",878,9129635852,7:00 AM - 19:00 PM,3,Yes,Open,Murthy,"First Floor, Murthy, Bangalore - 344053",25.35322022517027,96.78036885581214,2023-03-02 13:27:54,2024-09-07 18:29:40
42,Royal Bistro,"Beverages, Street Food, Mughlai",1093,9750911797,11:00 AM - 17:00 PM,3,Yes,Open,Vaidya Chowk,"Third Floor, Vaidya Chowk, Bangalore - 344053",34.66553820100703,74.12674901204055,2023-09-13 22:12:12,2024-10-11 06:13:46
43,Royal Palace,"North Indian, Bakery",1851,9678158427,12:00 AM - 22:00 PM,3,Yes,Open,Dewan Circle,"First Floor, Dewan Circle, Bangalore - 344053",19.035266976012913,70.69775230765616,2022-03-18 15:00:33,2023-12-27 02:41:38
44,Diamond Hub,"Burger, Mughlai",1558,9233815413,12:00 AM - 19:00 PM,3,No,Closed,Nagarajan Nagar," Nagarajan Nagar, Bangalore - 344053",17.431112136492676,80.35961754107865,2023-07-27 14:06:12,2024-09-30 17:15:16
45,Blue Palace,"Ice Cream, Continental",592,9551450815,12:00 AM - 20:00 PM,3,Yes,Open,Mani,"First Floor, Mani, Bangalore - 344053",26.37303554578031,77.2921189188469,2022-08-15 00:06:02,2024-03-17 03:53:13
46,Golden Junction,Lebanese,787,9325681936,10:00 AM - 23:00 PM,3,Yes,Open,Puri Road," Puri Road, Bangalore - 344053",26.114517858009073,77.90021550897816,2022-08-17 17:13:08,2023-02-24 21:32:03
47,Red Bites,"Mexican, Bakery, Cafe",1825,9954725078,12:00 AM - 18:00 PM,3,Yes,Open,Ghose Circle,"Ground Floor, Ghose Circle, Bangalore - 344053",16.686563025796403,87.65302702650771,2023-05-17 16:33:31,2023-10-06 05:43:10
48,Silver Eatery,Thai,1577,9433310361,8:00 AM - 23:00 PM,3,Yes,Open,Keer Path,"First Floor, Keer Path, Bangalore - 344053",12.702735697576564,70.01940165154825,2023-11-11 01:29:45,2025-02-28 02:08:04
49,Red Garden,Fast Food,1048,9776205431,11:00 AM - 18:00 PM,3,Yes,Open,Bhatia Circle,"Third Floor, Bhatia Circle, Bangalore - 344053",22.83581333510476,75.66575574996443,2023-08-10 07:04:39,2024-06-26 02:32:32
50,Diamond Palace,Italian,1794,9556497252,8:00 AM - 18:00 PM,3,Yes,Open,Sastry Ganj," Sastry Ganj, Bangalore - 344053",21.964856629568168,84.61393541965344,2023-12-10 06:31:00,2024-12-01 14:40:03
51,Ruby Junction,Fast Food,473,9960514523,10:00 AM - 22:00 PM,3,No,Closed,Thakur Chowk," Thakur Chowk, Bangalore - 344053",37.24645962954028,85.70016369230194,2024-02-26 23:53:24,2025-02-17 04:52:55
52,Crystal Hub,"Burger, Bakery",1073,9991816852,11:00 AM - 20:00 PM,3,Yes,Open,Garg Road,"First Floor, Garg Road, Bangalore - 344053",30.11473891105988,82.25195517129818,2024-02-01 17:13:22,2025-01-12 03:25:41
53,Urban Corner,Japanese,1768,9935021998,11:00 AM - 20:00 PM,3,No,Closed,Padmanabhan Nagar,"First Floor, Padmanabhan Nagar, Bangalore - 344053",16.41824544999212,70.9121497528382,2023-01-12 21:55:33,2024-03-07 14:45:54
54,Urban Cafe,"Mughlai, Burger",1306,9186519602,8:00 AM - 18:00 PM,3,Yes,Open,Karan Ganj,"First Floor, Karan Ganj, Bangalore - 344053",19.584630538995075,73.06259036077758,2023-10-09 23:01:17,2024-09-25 06:34:45
55,Flavors Bistro,"Beverages, Mughlai",1311,9600282414,10:00 AM - 17:00 PM,3,Yes,Open,Sethi Road,"First Floor, Sethi Road, Bangalore - 344053",32.720422144742244,79.81956300164117,2023-09-23 05:16:34,2024-06-09 09:09:38
56,Crystal Garden,"North Indian, Pizza, Desserts",1176,9106330865,9:00 AM - 19:00 PM,3,No,Closed,Gulati,"Third Floor, Gulati, Bangalore - 344053",33.320680156617854,95.92043616332154,2023-09-09 07:36:07,2024-11-11 08:43:42
57,Blue Table,"Ice Cream, Thai, Cafe",649,9393062061,10:00 AM - 20:00 PM,3,Yes,Open,Lad Ganj,"Ground Floor, Lad Ganj, Bangalore - 344053",19.75463033478694,87.79634186878428,2022-07-01 09:29:23,2023-07-16 05:46:01
58,Crystal Grill,"Mediterranean, Fast Food, Continental",1474,9673510887,7:00 AM - 20:00 PM,3,Yes,Open,Saran Nagar," Saran Nagar, Bangalore - 344053",24.88024590432341,69.47376342301592,2024-01-11 16:33:38,2024-12-26 21:30:16
59,Diamond Grill,Fast Food,572,9153992714,9:00 AM - 20:00 PM,3,Yes,Open,Aurora Chowk,"Second Floor, Aurora Chowk, Bangalore - 344053",14.580480298975262,78.03144772936136,2023-10-08 15:20:07,2024-02-15 21:39:07
60,Crystal Hub,"Japanese, Beverages",716,9996478772,7:00 AM - 20:00 PM,3,Yes,Open,Padmanabhan Street,"Ground Floor, Padmanabhan Street, Bangalore - 344053",30.271508423619245,70.18704411534495,2023-02-20 08:19:22,2023-11-18 02:28:09
61,Green Cafe,"Chinese, South Indian, North Indian",706,9314061901,7:00 AM - 21:00 PM,3,Yes,Open,Raja Nagar,"First Floor, Raja Nagar, Bangalore - 344053",15.365512303156052,82.22016829001196,2024-01-08 01:16:42,2024-12-30 17:35:40
62,Spice Garden,Fast Food,1632,9375139575,9:00 AM - 18:00 PM,3,Yes,Open,Hayer Circle," Hayer Circle, Bangalore - 344053",26.131626821615207,90.05327736332342,2023-03-26 09:20:56,2023-04-17 12:39:36
63,Spice Corner,Lebanese,421,9721358005,7:00 AM - 19:00 PM,3,Yes,Open,Magar Marg," Magar Marg, Bangalore - 344053",28.178540776031937,96.05583453077833,2023-10-24 19:20:31,2024-10-21 17:18:44
64,Blue Palace,Chinese,1412,9841541582,12:00 AM - 18:00 PM,3,Yes,Open,Jha Circle,"Ground Floor, Jha Circle, Bangalore - 344053",28.758035672876552,77.3101856706729,2022-11-23 05:29:33,2023-02-05 16:42:16
65,Diamond Garden,Pizza,1802,9144097647,9:00 AM - 21:00 PM,3,Yes,Open,Jhaveri Zila,"Third Floor, Jhaveri Zila, Bangalore - 344053",27.716423148070795,70.66871482763574,2022-07-30 07:00:17,2023-01-10 03:05:02
66,Diamond Eatery,Beverages,1884,9626350075,7:00 AM - 20:00 PM,3,Yes,Open,More Street,"Second Floor, More Street, Bangalore - 344053",26.95908509816222,92.35959372912018,2023-11-27 08:33:46,2025-02-06 20:52:31
67,Emerald Restaurant,"Mediterranean, Bakery",1532,9389998761,11:00 AM - 23:00 PM,3,Yes,Open,Koshy Marg," Koshy Marg, Bangalore - 344053",31.019530350849983,81.9721461801652,2023-07-07 02:06:25,2023-10-14 11:43:53
68,Pearl Palace,"Japanese, Mughlai, Thai",1901,9193053577,9:00 AM - 20:00 PM,3,Yes,Open,Bahri Street,"First Floor, Bahri Street, Bangalore - 344053",30.313907429348582,84.9692073555661,2023-10-04 22:51:03,2023-12-02 09:25:50
69,Diamond Grill,"North Indian, Cafe",1942,9448981305,8:00 AM - 20:00 PM,3,Yes,Open,Patla Path,"First Floor, Patla Path, Bangalore - 344053",18.760889012341984,76.07596127291526,2024-02-11 20:36:32,2024-04-28 03:48:16
70,Urban Hub,"Japanese, Ice Cream, North Indian",1258,9305145276,7:00 AM - 18:00 PM,3,No,Closed,Dugal Marg,"Third Floor, Dugal Marg, Bangalore - 344053",22.66647312798459,90.34560085692442,2024-01-12 21:20:10,2024-10-30 11:34:13
71,Emerald Bites,"Cafe, Fast Food, North Indian",390,9415933049,8:00 AM - 20:00 PM,3,Yes,Open,Konda Chowk,"First Floor, Konda Chowk, Bangalore - 344053",17.341216079798585,85.30341196123908,2022-06-16 04:16:56,2024-01-19 12:43:01
72,Red Table,"Street Food, Beverages, Ice Cream",877,9477753674,12:00 AM - 20:00 PM,3,Yes,Open,Parekh Street,"Second Floor, Parekh Street, Bangalore - 344053",17.353391347385852,75.2818610790724,2022-04-28 22:23:51,2022-08-16 03:43:12
73,Emerald Cafe,"Italian, Ice Cream",1760,9841057474,8:00 AM - 18:00 PM,3,Yes,Open,Deep Zila,"First Floor, Deep Zila, Bangalore - 344053",29.96725588246136,76.59406434995608,2023-02-04 19:17:05,2024-04-13 10:52:36
74,Silver Corner,"Burger, Lebanese, Italian",1905,9308432166,9:00 AM - 18:00 PM,3,Yes,Open,Basu Circle,"Second Floor, Basu Circle, Bangalore - 344053",13.639693075613778,69.10393588516062,2023-06-29 10:26:11,2024-03-30 03:57:47
75,Golden Restaurant,"South Indian, Burger",1333,9413679331,12:00 AM - 18:00 PM,3,Yes,Open,Khalsa Path,"Third Floor, Khalsa Path, Bangalore - 344053",11.395559286202612,69.05017726637075,2022-09-15 08:45:22,2024-09-17 06:08:19
76,Urban Bites,"Fast Food, Mughlai",577,9155165334,9:00 AM - 23:00 PM,3,Yes,Open,Sahni Ganj,"Third Floor, Sahni Ganj, Bangalore - 344053",11.731344509167798,70.56555507250278,2022-04-29 13:39:26,2022-12-06 21:26:49
77,Red Bistro,"South Indian, Continental, Pizza",1861,9704344408,9:00 AM - 17:00 PM,3,Yes,Open,Acharya Street,"First Floor, Acharya Street, Bangalore - 344053",11.858785616574679,90.52486036406285,2022-12-29 16:01:41,2023-07-26 12:17:16
78,Silver Garden,"Thai, Bakery, Desserts",1122,9575368059,9:00 AM - 23:00 PM,3,Yes,Open,Babu Road," Babu Road, Bangalore - 344053",37.3089128056305,77.41860597531775,2023-09-28 02:30:57,2025-01-24 12:09:26
79,Silver Kitchen,"Italian, Mexican, Pizza",741,9809129316,7:00 AM - 18:00 PM,3,Yes,Open,Dixit Street,"First Floor, Dixit Street, Bangalore - 344053",13.475355611131889,70.84310200712835,2022-03-20 22:24:15,2022-06-13 11:56:31
80,Royal Grill,"Burger, Cafe",796,9135046782,8:00 AM - 19:00 PM,3,Yes,Open,Baria Marg,"Second Floor, Baria Marg, Bangalore - 344053",28.927236696336543,81.66259436892109,2022-04-19 02:06:09,2024-04-04 21:14:42
81,Diamond Cafe,"Pizza, Mexican",1070,9223240112,11:00 AM - 18:00 PM,3,Yes,Open,Ranganathan Marg,"First Floor, Ranganathan Marg, Bangalore - 344053",34.9256142002081,92.3003196080092,2023-01-21 05:49:39,2023-10-14 17:34:26
82,Spice Kitchen,Lebanese,1418,9904187231,11:00 AM - 19:00 PM,3,Yes,Open,Nori Road,"Third Floor, Nori Road, Bangalore - 344053",12.03112681870148,88.36175664910527,2022-12-19 23:20:57,2024-06-21 07:50:47
83,Emerald Grill,"Bakery, Ice Cream",1211,9570040006,7:00 AM - 21:00 PM,3,Yes,Open,Chakrabarti Chowk,"Ground Floor, Chakrabarti Chowk, Bangalore - 344053",34.37114836733965,89.67094350980432,2022-09-13 01:26:56,2024-07-09 19:58:22
84,Silver Diner,Chinese,668,9824022357,11:00 AM - 21:00 PM,3,Yes,Open,Kannan Ganj,"Ground Floor, Kannan Ganj, Bangalore - 344053",37.58751457282158,87.89363923185748,2023-08-07 11:02:33,2024-02-21 10:29:27
85,Silver Kitchen,Cafe,1262,9799552991,10:00 AM - 19:00 PM,4,Yes,Open,Ravi Zila,"First Floor, Ravi Zila, Hyderabad - 217473",37.51080786803086,81.14451638104843,2023-08-17 14:34:12,2025-02-03 10:01:49
86,Pearl Bites,Cafe,912,9538460431,9:00 AM - 19:00 PM,4,Yes,Open,Sehgal Ganj,"Ground Floor, Sehgal Ganj, Hyderabad - 217473",33.4458063564903,78.11589459517947,2022-05-01 16:00:35,2022-07-03 22:21:40
87,Emerald Bites,"Desserts, Ice Cream",275,9588365604,7:00 AM - 19:00 PM,4,Yes,Open,Patla Path,"Second Floor, Patla Path, Hyderabad - 217473",17.839594559259048,96.39877395038488,2023-02-09 18:39:04,2025-02-05 06:09:01
88,Blue Junction,"North Indian, Ice Cream, Fast Food",1046,9158201193,8:00 AM - 21:00 PM,4,Yes,Open,Pall Marg,"Second Floor, Pall Marg, Hyderabad - 217473",26.58090907996997,82.93197807301149,2023-02-09 14:13:12,2024-07-31 00:11:03
89,Red Corner,Mexican,746,9689720101,8:00 AM - 19:00 PM,4,Yes,Open,Kala Chowk,"Third Floor, Kala Chowk, Hyderabad - 217473",34.12072122684793,82.53852180292245,2023-12-28 11:05:34,2025-02-13 04:19:26
90,Royal House,"Thai, Mediterranean, Lebanese",1328,9114682844,11:00 AM - 20:00 PM,4,Yes,Open,Sarna Zila,"Ground Floor, Sarna Zila, Hyderabad - 217473",14.961259256108914,92.72213221016636,2023-12-12 16:23:53,2024-01-20 04:42:08
91,Spice Bites,Continental,1220,9869446962,9:00 AM - 21:00 PM,4,Yes,Open,Subramaniam Marg,"Second Floor, Subramaniam Marg, Hyderabad - 217473",20.53231801371231,82.4753629221468,2023-09-10 01:09:25,2024-02-06 16:01:07
92,Red Cafe,"Ice Cream, Continental",985,9304666325,11:00 AM - 21:00 PM,4,Yes,Open,Behl Circle,"First Floor, Behl Circle, Hyderabad - 217473",33.629586485314775,76.58686335056927,2022-06-11 08:39:26,2024-05-24 06:58:56
93,Crystal Junction,"Mughlai, Bakery",747,9981058292,7:00 AM - 19:00 PM,4,Yes,Open,Mangal Zila,"Second Floor, Mangal Zila, Hyderabad - 217473",32.8542969401075,85.25681260987119,2023-05-19 18:36:16,2024-10-14 07:05:42
94,Diamond Bites,Fast Food,1303,9620057604,9:00 AM - 19:00 PM,4,Yes,Open,Kala Circle," Kala Circle, Hyderabad - 217473",30.675882186503394,79.46934704780645,2022-06-23 00:59:57,2023-10-13 22:39:10
95,Ruby Eatery,Thai,1371,9511211819,8:00 AM - 23:00 PM,4,Yes,Open,Kamdar Road,"Third Floor, Kamdar Road, Hyderabad - 217473",9.674501133641217,89.96133207718634,2022-11-09 21:57:17,2025-01-20 15:23:13
96,Emerald Hub,"Desserts, Continental",1214,9139749508,8:00 AM - 21:00 PM,4,Yes,Open,Wadhwa Street," Wadhwa Street, Hyderabad - 217473",18.094245354795824,71.56540939180654,2023-10-13 05:32:06,2023-12-20 15:40:14
97,Pearl Bites,Bakery,1135,9116479358,12:00 AM - 18:00 PM,4,Yes,Open,Chopra Zila,"Third Floor, Chopra Zila, Hyderabad - 217473",33.831242763397206,96.39226646987359,2022-10-20 12:37:29,2023-06-01 20:33:46
98,Spice Bites,"Mughlai, Desserts",1530,9186237917,9:00 AM - 23:00 PM,4,Yes,Open,Naik Path," Naik Path, Hyderabad - 217473",19.49627440766153,77.74067594479857,2023-04-10 19:38:59,2024-07-02 07:10:51
99,Emerald Hub,"Ice Cream, South Indian",1464,9173466219,8:00 AM - 22:00 PM,4,Yes,Open,Bumb Chowk,"Second Floor, Bumb Chowk, Hyderabad - 217473",37.52483695032149,90.02017977036782,2023-03-10 02:07:20,2024-08-13 19:32:58
100,Blue Bistro,"Italian, Fast Food, Mediterranean",1621,9421549249,7:00 AM - 17:00 PM,4,Yes,Open,Cheema Ganj,"Second Floor, Cheema Ganj, Hyderabad - 217473",31.64738918273659,77.07565000380671,2023-05-05 10:41:29,2024-06-10 00:59:38
101,Green Grill,Thai,1287,9542437192,11:00 AM - 22:00 PM,4,Yes,Open,Sharaf Zila,"First Floor, Sharaf Zila, Hyderabad - 217473",13.363522552788444,70.95454641134285,2022-05-13 17:20:50,2024-12-31 18:40:21
102,Pearl Grill,"Thai, Cafe, Continental",675,9595155950,12:00 AM - 19:00 PM,4,Yes,Open,Golla Street,"Third Floor, Golla Street, Hyderabad - 217473",15.8555398782473,68.96829666803657,2024-02-24 18:54:30,2024-07-18 05:48:00
103,Crystal Bites,"Ice Cream, Mediterranean",351,9574303740,9:00 AM - 21:00 PM,4,Yes,Open,Taneja Ganj,"Second Floor, Taneja Ganj, Hyderabad - 217473",27.05701010891236,80.81402019305862,2022-11-20 14:20:30,2023-04-21 15:34:49
104,Urban Bites,"Mexican, Desserts",1947,9618840705,7:00 AM - 18:00 PM,4,Yes,Open,Sarma Nagar,"Third Floor, Sarma Nagar, Hyderabad - 217473",25.100142616641577,85.11088060660032,2023-12-15 07:39:04,2025-01-01 07:45:07
105,Emerald Diner,Desserts,762,9108695125,11:00 AM - 23:00 PM,4,No,Closed,Ratta Nagar,"Ground Floor, Ratta Nagar, Hyderabad - 217473",34.99001504858635,89.97466500052485,2023-06-08 08:01:19,2023-10-14 16:55:23
106,Pearl Hub,"Thai, Street Food",648,9783563240,8:00 AM - 21:00 PM,4,Yes,Open,Sawhney Road,"Second Floor, Sawhney Road, Hyderabad - 217473",28.190722191802095,89.28250515394873,2023-02-08 14:33:08,2024-03-15 19:45:28
107,Diamond House,Italian,1485,9794002948,7:00 AM - 19:00 PM,4,Yes,Open,Grewal Road,"Third Floor, Grewal Road, Hyderabad - 217473",9.374244312372468,79.11678820296281,2022-06-30 06:35:31,2023-06-13 01:25:55
108,Taste Bistro,"Mughlai, Beverages",559,9315601773,8:00 AM - 23:00 PM,4,Yes,Open,Halder Nagar," Halder Nagar, Hyderabad - 217473",33.99264942383391,79.14523249906179,2023-06-23 18:36:53,2024-05-25 17:13:52
109,Golden Hub,"Mediterranean, Japanese",1888,9617380166,9:00 AM - 22:00 PM,4,Yes,Open,Kant Ganj,"Second Floor, Kant Ganj, Hyderabad - 217473",31.883590127251715,82.07086115174445,2022-03-20 00:58:38,2024-05-01 09:12:58
110,Spice Restaurant,Desserts,1932,9963919401,11:00 AM - 19:00 PM,4,Yes,Open,Chauhan Circle,"Ground Floor, Chauhan Circle, Hyderabad - 217473",31.487913482796976,69.09737760313074,2022-04-26 03:16:14,2023-02-18 23:30:36
111,Golden Bistro,"Street Food, Japanese",1397,9509123009,12:00 AM - 19:00 PM,4,Yes,Open,Raghavan Ganj,"Ground Floor, Raghavan Ganj, Hyderabad - 217473",28.1052274169594,82.16066458087008,2023-05-08 12:09:10,2024-01-24 08:17:22
112,Silver Hub,"Mughlai, Thai, Chinese",1501,9984607950,10:00 AM - 22:00 PM,4,Yes,Open,Guha Circle,"Second Floor, Guha Circle, Hyderabad - 217473",27.357791831510063,72.03109799355741,2023-06-05 00:34:23,2023-09-26 21:44:56
113,Royal Diner,"Italian, Burger",680,9677186272,8:00 AM - 20:00 PM,5,No,Closed,Ben Zila,"Third Floor, Ben Zila, Chennai - 681858",19.23353625221698,95.8048209381599,2022-07-25 02:02:22,2023-09-29 15:39:43
114,Emerald Table,"Pizza, Continental",1049,9803217037,7:00 AM - 23:00 PM,5,Yes,Open,Wali Street,"Third Floor, Wali Street, Chennai - 681858",26.37704465029377,95.50996502612486,2023-05-09 11:44:54,2025-02-09 11:51:01
115,Urban Kitchen,"Street Food, Mexican, Fast Food",1110,9353524015,9:00 AM - 17:00 PM,5,Yes,Open,Pau Circle,"Second Floor, Pau Circle, Chennai - 681858",24.298403155278635,96.61740421585594,2023-01-14 07:30:55,2024-01-10 11:13:57
116,Green Kitchen,"Japanese, Mexican",450,9984968439,10:00 AM - 17:00 PM,5,Yes,Open,Deshpande Road,"First Floor, Deshpande Road, Chennai - 681858",27.13777044320996,85.74851714428301,2022-05-30 11:43:22,2024-10-14 06:03:27
117,Royal Kitchen,"Thai, Continental",1811,9706210987,8:00 AM - 17:00 PM,5,Yes,Open,Devan Marg," Devan Marg, Chennai - 681858",14.44899521412243,74.86541109727817,2023-08-23 00:14:40,2024-07-06 06:39:59
118,Pearl Cafe,"Continental, North Indian",767,9255357534,8:00 AM - 21:00 PM,5,Yes,Open,Grewal Street,"Second Floor, Grewal Street, Chennai - 681858",31.716603647882614,71.83839723224338,2023-09-06 00:33:02,2024-10-07 17:39:31
119,Pearl Kitchen,North Indian,933,9948239575,8:00 AM - 21:00 PM,5,Yes,Open,Dyal Circle,"Second Floor, Dyal Circle, Chennai - 681858",8.86080763852588,76.27624236267799,2023-01-08 06:00:31,2023-07-18 10:10:18
120,Taste Palace,"Bakery, Italian",1727,9168244921,10:00 AM - 20:00 PM,5,Yes,Open,Dhawan Chowk,"Second Floor, Dhawan Chowk, Chennai - 681858",23.3865483621884,71.81349198560979,2022-04-30 14:00:49,2024-02-10 20:32:13
121,Golden Cafe,"South Indian, Bakery, Lebanese",1138,9790781796,7:00 AM - 17:00 PM,5,Yes,Open,Goyal Ganj,"Third Floor, Goyal Ganj, Chennai - 681858",33.14111746048349,80.87011183044376,2022-08-21 07:34:33,2022-10-07 08:08:53
122,Spice Bites,"Fast Food, Chinese, Pizza",859,9753154389,8:00 AM - 17:00 PM,5,Yes,Open,Baria Marg,"First Floor, Baria Marg, Chennai - 681858",16.430467187092233,86.77434047879399,2023-05-27 08:35:31,2023-08-05 18:38:40
123,Golden Palace,"Desserts, Bakery",803,9587173220,11:00 AM - 21:00 PM,5,Yes,Open,Batta Zila,"Third Floor, Batta Zila, Chennai - 681858",11.296011081028027,88.73580239949018,2023-05-22 14:16:10,2024-01-17 19:48:02
124,Pearl House,"Ice Cream, Mexican, Beverages",1124,9345343109,10:00 AM - 19:00 PM,5,Yes,Open,Dani,"Third Floor, Dani, Chennai - 681858",20.042921380303035,89.5304370929651,2024-01-18 02:35:34,2025-02-14 08:14:31
125,Green Grill,"Japanese, Street Food",512,9837468465,10:00 AM - 17:00 PM,5,Yes,Open,Padmanabhan Zila,"Ground Floor, Padmanabhan Zila, Chennai - 681858",32.687739143465755,71.36171940364,2024-01-22 00:55:34,2024-11-02 09:34:21
126,Spice Palace,"Street Food, Continental, Ice Cream",322,9729712082,11:00 AM - 21:00 PM,5,Yes,Open,Amble Marg,"Second Floor, Amble Marg, Chennai - 681858",27.964387330183044,80.42858646992762,2023-06-04 14:39:37,2024-07-28 12:15:20
127,Pearl House,"South Indian, Lebanese",1429,9435489452,9:00 AM - 17:00 PM,5,Yes,Open,Dubey Ganj," Dubey Ganj, Chennai - 681858",23.21644637146572,73.11754652075336,2022-05-15 17:01:03,2023-05-08 09:18:09
128,Red Cafe,Street Food,1931,9697285504,9:00 AM - 17:00 PM,5,Yes,Open,Nagar Road,"Second Floor, Nagar Road, Chennai - 681858",25.163720126478715,91.74617014639944,2023-06-14 07:55:00,2024-06-20 03:23:05
129,Pearl Table,"Burger, Ice Cream, North Indian",1447,9806340901,12:00 AM - 19:00 PM,5,Yes,Open,Basu Chowk,"Ground Floor, Basu Chowk, Chennai - 681858",13.66814930125695,88.76204996531301,2023-05-30 01:04:50,2024-05-18 07:56:11
130,Urban Hub,"Street Food, North Indian",571,9253815116,11:00 AM - 22:00 PM,5,Yes,Open,Parsa Zila,"Third Floor, Parsa Zila, Chennai - 681858",10.431894300451425,89.85466663783089,2022-08-03 09:12:39,2024-10-13 00:53:24
131,Royal Bistro,"Bakery, Mexican, Desserts",1059,9587098457,9:00 AM - 18:00 PM,5,Yes,Open,Lalla Path,"Second Floor, Lalla Path, Chennai - 681858",17.499811195363122,77.96113156883908,2022-04-28 15:41:26,2023-08-29 22:15:28
132,Silver Garden,South Indian,518,9269017588,11:00 AM - 17:00 PM,5,Yes,Open,Sankar Circle,"Ground Floor, Sankar Circle, Chennai - 681858",16.345403031549594,87.59834967967586,2023-12-30 22:02:45,2024-04-05 00:56:11
133,Red Garden,"Beverages, Japanese",641,9910614025,11:00 AM - 17:00 PM,5,Yes,Open,Rajagopal Path,"Second Floor, Rajagopal Path, Chennai - 681858",20.9534780952184,76.78668672079684,2022-03-15 13:42:14,2023-05-12 05:26:17
134,Silver Bites,"Lebanese, South Indian, Thai",1009,9743520276,7:00 AM - 17:00 PM,6,Yes,Open,Setty Ganj,"First Floor, Setty Ganj, Kolkata - 552417",17.201445370938355,74.73073010673991,2022-08-12 11:40:48,2024-07-13 13:30:30
135,Taste Corner,"Lebanese, Mughlai",445,9108299923,10:00 AM - 22:00 PM,6,No,Closed,Swamy Zila,"Third Floor, Swamy Zila, Kolkata - 552417",13.530288214774597,79.55492257517,2024-03-02 13:50:57,2024-05-05 17:35:13
136,Emerald Cafe,"Ice Cream, Street Food, Chinese",1013,9896760809,7:00 AM - 20:00 PM,6,Yes,Open,Sundaram Street,"Ground Floor, Sundaram Street, Kolkata - 552417",21.824824110403235,70.92297756905288,2022-03-05 19:20:06,2023-03-26 05:47:21
137,Green Garden,"Pizza, Desserts",1653,9787346882,10:00 AM - 19:00 PM,6,Yes,Open,Kulkarni Zila,"Ground Floor, Kulkarni Zila, Kolkata - 552417",20.226943366296673,96.28500117899576,2022-11-01 11:37:11,2024-04-21 20:58:43
138,Taste Corner,"Fast Food, Street Food, Chinese",1094,9213669678,8:00 AM - 20:00 PM,6,Yes,Open,Bandi Zila," Bandi Zila, Kolkata - 552417",20.093134636429745,70.94537434763565,2022-09-30 15:51:41,2023-08-17 22:31:44
139,Pearl Diner,"Mughlai, Thai, Burger",1795,9280531127,7:00 AM - 21:00 PM,6,Yes,Open,Barad Nagar,"Ground Floor, Barad Nagar, Kolkata - 552417",23.893660766561332,74.23595081392001,2022-11-25 08:52:00,2023-09-08 10:46:42
140,Crystal Eatery,"Continental, Thai",410,9257243284,9:00 AM - 18:00 PM,6,No,Closed,Sood Path,"First Floor, Sood Path, Kolkata - 552417",25.990050369976444,90.40414668786377,2022-12-12 18:55:14,2024-04-29 04:16:40
141,Diamond Bistro,Cafe,1150,9910080036,11:00 AM - 23:00 PM,6,No,Closed,Mann Road," Mann Road, Kolkata - 552417",21.50803350425584,95.08460407691058,2022-12-24 13:21:57,2023-01-01 21:30:43
142,Silver House,"Burger, Mughlai, Pizza",509,9572191734,7:00 AM - 20:00 PM,6,Yes,Open,Chandra,"Third Floor, Chandra, Kolkata - 552417",26.836445504742542,91.43521233977327,2023-05-14 18:31:03,2023-06-09 15:39:39
143,Silver Kitchen,"Bakery, Chinese",835,9595792218,10:00 AM - 17:00 PM,6,Yes,Open,Choudhary Marg,"Ground Floor, Choudhary Marg, Kolkata - 552417",19.167137905102535,76.89604928076767,2023-09-09 12:10:34,2023-10-02 12:11:41
144,Diamond Junction,Burger,1416,9644459924,10:00 AM - 20:00 PM,6,Yes,Open,Sahni Road," Sahni Road, Kolkata - 552417",24.586038043078474,91.30639811192599,2023-06-08 08:45:01,2023-08-20 05:58:39
145,Ruby Kitchen,"Pizza, Mexican",858,9749620068,10:00 AM - 21:00 PM,6,Yes,Open,Barad Ganj,"First Floor, Barad Ganj, Kolkata - 552417",36.365492878904284,81.56243476238086,2023-07-19 04:33:39,2024-08-03 19:20:52
146,Crystal Hub,"Chinese, Bakery",1523,9285283722,7:00 AM - 18:00 PM,6,Yes,Open,Grewal Circle,"Third Floor, Grewal Circle, Kolkata - 552417",37.33679186128912,83.66215719300848,2023-07-25 18:45:55,2024-03-18 03:37:58
147,Silver Restaurant,"Street Food, Lebanese",993,9538912794,9:00 AM - 22:00 PM,6,Yes,Open,Brar," Brar, Kolkata - 552417",9.929073112051384,86.71181170031852,2023-09-11 13:35:30,2024-05-01 14:06:08
148,Green Bistro,"Italian, Ice Cream",1589,9515070154,9:00 AM - 19:00 PM,6,Yes,Open,Datta Marg," Datta Marg, Kolkata - 552417",33.899766132167734,78.2174861295289,2023-10-14 14:19:40,2024-10-20 17:13:32
149,Silver House,Street Food,835,9804433388,12:00 AM - 22:00 PM,6,Yes,Open,Deo Road,"Third Floor, Deo Road, Kolkata - 552417",12.165388421529558,88.93721111029359,2023-05-27 10:01:49,2023-12-20 07:00:24
150,Spice Diner,"Desserts, Mughlai, Continental",1572,9854658900,12:00 AM - 22:00 PM,6,Yes,Open,Nagar Street," Nagar Street, Kolkata - 552417",11.128826579927836,87.84151994428225,2022-05-03 10:47:31,2022-06-28 16:39:51
151,Golden Eatery,Street Food,832,9293555835,8:00 AM - 19:00 PM,6,No,Closed,Jain Zila,"Third Floor, Jain Zila, Kolkata - 552417",14.00655282300008,97.24933253249147,2023-06-05 16:00:07,2023-11-08 01:31:23
152,Taste Bistro,"Italian, Bakery",1778,9679574436,12:00 AM - 21:00 PM,6,Yes,Open,Andra Circle,"Ground Floor, Andra Circle, Kolkata - 552417",27.7283337312454,93.72101365609528,2023-07-29 19:58:47,2023-08-23 00:52:42
153,Silver Restaurant,"Desserts, Continental, Mediterranean",570,9992649957,12:00 AM - 23:00 PM,6,Yes,Open,Chopra Road," Chopra Road, Kolkata - 552417",32.02407661346759,73.42614318199288,2023-02-18 05:28:23,2023-10-03 04:38:37
154,Red Kitchen,"Street Food, Thai",1109,9755621841,9:00 AM - 23:00 PM,6,Yes,Open,Tailor Path,"Third Floor, Tailor Path, Kolkata - 552417",15.232885974594396,75.52826059635959,2023-05-04 09:08:05,2024-02-09 16:16:41
155,Crystal Corner,"Mexican, Street Food",1589,9712483158,10:00 AM - 20:00 PM,6,No,Closed,Ghose Chowk,"Second Floor, Ghose Chowk, Kolkata - 552417",31.121221887697843,83.05798604197038,2023-02-18 23:23:21,2025-02-22 15:55:16
156,Blue Restaurant,Burger,483,9368438908,7:00 AM - 22:00 PM,6,Yes,Open,Ramaswamy,"Third Floor, Ramaswamy, Kolkata - 552417",33.92421479552532,84.53213828186752,2023-12-10 19:50:24,2024-03-22 07:58:37
157,Spice Palace,"Italian, Lebanese, Chinese",1762,9272134062,9:00 AM - 20:00 PM,6,Yes,Open,Bhargava Road," Bhargava Road, Kolkata - 552417",12.702580754954846,81.18984159356671,2023-03-16 20:41:45,2024-06-29 18:55:31
158,Ruby Cafe,"Street Food, North Indian",1049,9157184151,10:00 AM - 21:00 PM,6,Yes,Open,Palan Circle,"Second Floor, Palan Circle, Kolkata - 552417",15.284719756812233,97.0936987778532,2023-12-21 13:17:59,2024-12-16 15:14:03
159,Green Cafe,Mughlai,402,9867407868,12:00 AM - 19:00 PM,6,Yes,Open,Sarkar Road,"First Floor, Sarkar Road, Kolkata - 552417",12.417907961595454,76.8904067932938,2022-11-29 14:27:05,2023-05-28 03:54:29
160,Pearl Bites,"Continental, Cafe, Fast Food",1460,9105638424,7:00 AM - 17:00 PM,6,Yes,Open,Issac Circle,"Second Floor, Issac Circle, Kolkata - 552417",14.69711853847595,72.96878512142868,2024-02-24 18:25:28,2024-07-03 20:01:40
161,Emerald Garden,"Beverages, Italian, Lebanese",686,9423358638,7:00 AM - 17:00 PM,6,Yes,Open,Maharaj,"First Floor, Maharaj, Kolkata - 552417",20.65890587760054,91.36581955165596,2022-06-07 16:29:00,2023-06-27 10:39:54
162,Red Bistro,Cafe,1422,9675583372,7:00 AM - 22:00 PM,6,Yes,Open,Basu Street," Basu Street, Kolkata - 552417",25.1913857598945,89.21444055847167,2023-09-25 22:38:21,2024-12-22 06:42:08
163,Urban Grill,Burger,922,9358303887,11:00 AM - 20:00 PM,6,Yes,Open,Uppal Ganj,"First Floor, Uppal Ganj, Kolkata - 552417",27.79964201086667,71.14427841488633,2024-01-31 20:43:05,2024-06-15 23:57:50
164,Green Bistro,"Ice Cream, Bakery, Pizza",1334,9121833792,10:00 AM - 23:00 PM,6,Yes,Open,Ravi Marg,"Third Floor, Ravi Marg, Kolkata - 552417",9.671205214869879,79.74546172960606,2023-07-14 14:39:05,2024-02-29 08:13:56
165,Green Diner,"North Indian, Street Food, Chinese",906,9358906986,12:00 AM - 22:00 PM,6,Yes,Open,Padmanabhan,"Ground Floor, Padmanabhan, Kolkata - 552417",30.927840124007886,89.68958841639149,2022-05-08 07:28:06,2024-07-12 01:43:52
166,Green Restaurant,Street Food,1318,9463512350,12:00 AM - 18:00 PM,6,Yes,Open,Nazareth Ganj,"Third Floor, Nazareth Ganj, Kolkata - 552417",37.0399202250344,82.36206494969173,2023-10-14 09:43:33,2024-04-25 09:09:09
167,Taste Corner,Chinese,1666,9933428091,10:00 AM - 17:00 PM,6,Yes,Open,Kala Ganj,"Second Floor, Kala Ganj, Kolkata - 552417",14.286456990831667,91.28616803768921,2023-03-01 03:49:20,2024-04-23 11:17:45
168,Ruby Kitchen,"Lebanese, Bakery",1015,9975535611,11:00 AM - 20:00 PM,6,Yes,Open,Jhaveri Street,"Second Floor, Jhaveri Street, Kolkata - 552417",9.469326528877724,87.16900924076143,2023-10-15 03:52:22,2024-04-10 05:09:41
169,Urban Eatery,Mughlai,759,9233654018,9:00 AM - 20:00 PM,6,Yes,Open,D’Alia Road,"Third Floor, D’Alia Road, Kolkata - 552417",30.104585001172943,94.24190048096678,2022-11-03 11:03:31,2023-07-19 20:22:57
170,Blue Eatery,Cafe,1617,9634211672,9:00 AM - 23:00 PM,6,Yes,Open,Sarraf Chowk," Sarraf Chowk, Kolkata - 552417",16.188244317423734,71.05855851440259,2022-05-30 21:16:33,2024-05-22 17:47:50
171,Blue Bistro,"Burger, Mediterranean",1317,9415429295,9:00 AM - 17:00 PM,6,Yes,Open,Goda Ganj,"Ground Floor, Goda Ganj, Kolkata - 552417",17.975261235973548,77.14052055366678,2024-02-11 20:19:21,2024-11-04 00:10:39
172,Red Garden,"Beverages, Mediterranean, Fast Food",919,9580101819,7:00 AM - 22:00 PM,6,Yes,Open,Shroff Marg,"Second Floor, Shroff Marg, Kolkata - 552417",26.353663280203918,81.11755139185902,2023-06-19 04:57:48,2023-10-15 16:22:12
173,Diamond Corner,Chinese,1574,9784523874,10:00 AM - 19:00 PM,6,Yes,Open,Karnik," Karnik, Kolkata - 552417",31.792002486415363,88.0971728531094,2022-07-16 15:49:14,2024-07-18 14:48:03
174,Royal Restaurant,"Fast Food, South Indian, Continental",337,9353398109,12:00 AM - 19:00 PM,6,Yes,Open,Bhavsar Road,"Second Floor, Bhavsar Road, Kolkata - 552417",19.579348529312313,84.89483452122361,2022-05-06 12:46:00,2024-05-17 02:25:32
175,Taste House,"Street Food, Burger",1109,9919355714,7:00 AM - 21:00 PM,7,Yes,Open,Doctor,"First Floor, Doctor, Pune - 208246",23.86022854085966,80.06387201194245,2023-11-12 16:27:10,2024-06-25 22:41:26
176,Diamond Diner,Italian,253,9889924866,8:00 AM - 20:00 PM,7,Yes,Open,Banik Road," Banik Road, Pune - 208246",19.700031497146497,84.73575589218792,2022-04-03 10:25:05,2022-09-17 02:16:11
177,Urban Corner,"Fast Food, Mexican",1453,9406635834,12:00 AM - 20:00 PM,7,Yes,Open,Sen Marg,"First Floor, Sen Marg, Pune - 208246",11.98101271959595,93.04819059047242,2023-03-14 23:07:17,2024-01-17 16:36:30
178,Red Restaurant,"Fast Food, Chinese, Mughlai",1567,9473045064,12:00 AM - 17:00 PM,7,Yes,Open,Sanghvi Road," Sanghvi Road, Pune - 208246",24.231403747786423,94.14751953120353,2023-12-13 14:26:01,2024-12-08 19:23:25
179,Pearl Restaurant,"Mediterranean, Street Food, Bakery",659,9230311939,8:00 AM - 23:00 PM,7,No,Closed,Sidhu Path,"First Floor, Sidhu Path, Pune - 208246",15.31269658117662,82.80432631410963,2023-10-26 20:28:47,2025-01-09 18:01:17
180,Green Table,"Street Food, Fast Food, Ice Cream",465,9757074545,7:00 AM - 17:00 PM,7,Yes,Open,Shanker Street,"Second Floor, Shanker Street, Pune - 208246",20.02627143851053,89.16845423745907,2023-05-14 11:09:16,2024-11-25 14:50:36
181,Red Table,"Beverages, Pizza",351,9234568604,9:00 AM - 22:00 PM,7,Yes,Open,Bakshi Marg,"Ground Floor, Bakshi Marg, Pune - 208246",21.539255273359487,88.11711168304554,2023-12-18 06:52:58,2024-07-06 10:13:34
182,Green Restaurant,"Pizza, Mediterranean, Continental",1086,9639945876,7:00 AM - 23:00 PM,7,Yes,Open,Kamdar Chowk,"Ground Floor, Kamdar Chowk, Pune - 208246",23.528582281381276,77.38275569715321,2023-12-06 05:14:00,2024-10-28 23:21:18
183,Taste Eatery,"Thai, Street Food, Bakery",781,9184675178,9:00 AM - 18:00 PM,7,No,Closed,Das Street," Das Street, Pune - 208246",16.413970169834588,86.54438841935726,2023-04-27 21:57:02,2025-01-18 01:30:03
184,Silver Table,Bakery,1512,9281071418,11:00 AM - 21:00 PM,7,Yes,Open,Hayre Road,"First Floor, Hayre Road, Pune - 208246",13.399058193229136,86.52888080123115,2022-10-05 15:23:50,2023-02-18 10:04:32
185,Ruby Garden,"Pizza, South Indian",1890,9130465806,7:00 AM - 17:00 PM,7,Yes,Open,Tella Nagar," Tella Nagar, Pune - 208246",16.127952508725194,74.7185792404911,2023-10-09 11:35:50,2025-03-01 23:54:00
186,Silver Grill,"North Indian, Cafe, Ice Cream",793,9789242701,9:00 AM - 20:00 PM,7,Yes,Open,Korpal Road,"First Floor, Korpal Road, Pune - 208246",31.896894103099406,88.25648851613657,2023-03-06 05:19:25,2024-05-09 22:27:27
187,Urban Bites,South Indian,523,9572022811,10:00 AM - 20:00 PM,7,Yes,Open,Mannan Ganj,"Third Floor, Mannan Ganj, Pune - 208246",14.357471996051242,86.02015050352917,2023-08-10 12:54:13,2024-03-24 02:25:18
188,Green Junction,"Mughlai, Street Food, Desserts",467,9916757816,9:00 AM - 21:00 PM,7,Yes,Open,Kanda Zila," Kanda Zila, Pune - 208246",11.500570861385642,75.60161592973614,2022-12-01 15:12:14,2024-12-10 01:10:18
189,Spice Diner,"Thai, Continental",398,9154337019,9:00 AM - 20:00 PM,7,Yes,Open,Gupta," Gupta, Pune - 208246",20.6095345053784,96.18468108143307,2023-06-21 04:40:24,2023-10-24 19:26:49
190,Ruby Restaurant,"Pizza, Mughlai",588,9919395339,8:00 AM - 20:00 PM,7,Yes,Open,Mammen Ganj," Mammen Ganj, Pune - 208246",22.03100143793064,93.79761019579195,2023-02-27 00:38:45,2024-07-14 22:53:52
191,Red Kitchen,Desserts,1235,9590947659,8:00 AM - 18:00 PM,7,Yes,Open,Srivastava Road," Srivastava Road, Pune - 208246",18.704536594605578,70.14292855212632,2023-03-16 08:09:14,2023-11-15 19:44:46
192,Red Garden,"Cafe, Lebanese, Ice Cream",216,9215424112,10:00 AM - 18:00 PM,7,Yes,Open,Bahl Zila,"Second Floor, Bahl Zila, Pune - 208246",29.643235450094245,90.50811061682481,2024-01-05 05:45:34,2024-01-30 09:16:18
193,Green Kitchen,"South Indian, Pizza",1350,9309009538,9:00 AM - 21:00 PM,7,No,Closed,Bail Marg,"Second Floor, Bail Marg, Pune - 208246",10.547127092490982,83.0964953564675,2022-07-27 01:26:13,2024-09-03 14:26:27
194,Crystal Table,"Burger, Italian",463,9203810954,10:00 AM - 19:00 PM,7,Yes,Open,Kohli Road,"Second Floor, Kohli Road, Pune - 208246",24.688689677546158,79.13806195523036,2022-10-24 02:39:06,2023-05-28 09:55:54
195,Taste Cafe,"Bakery, Desserts, Burger",282,9148644109,7:00 AM - 18:00 PM,7,Yes,Open,Chana Circle,"Second Floor, Chana Circle, Pune - 208246",31.875802971670993,83.52694888000953,2023-04-28 16:57:59,2024-09-01 08:50:35
196,Taste Garden,"Continental, Mughlai, Pizza",532,9521931770,11:00 AM - 22:00 PM,7,Yes,Open,Dara Road,"Second Floor, Dara Road, Pune - 208246",25.73675994442482,83.18384285604702,2023-05-03 07:35:14,2023-12-24 11:02:18
197,Golden Table,"Pizza, Lebanese",1172,9975903641,7:00 AM - 19:00 PM,7,Yes,Open,Dubey,"Second Floor, Dubey, Pune - 208246",28.075146660212084,96.67608879016507,2024-02-26 23:43:18,2024-09-10 13:14:37
198,Silver Diner,"North Indian, Cafe, Japanese",1542,9940636753,11:00 AM - 21:00 PM,7,Yes,Open,Wadhwa Path,"First Floor, Wadhwa Path, Pune - 208246",29.46488327905216,85.35958955971012,2023-04-25 02:10:29,2024-09-21 07:10:09
199,Taste Table,"Burger, Desserts, Continental",1882,9830924936,8:00 AM - 17:00 PM,7,Yes,Open,Virk," Virk, Pune - 208246",36.0875909869016,71.83751713407705,2022-10-23 14:06:26,2024-05-08 21:31:55
200,Royal Bites,"Beverages, Continental",1045,9841419015,8:00 AM - 20:00 PM,7,Yes,Open,Kashyap Ganj," Kashyap Ganj, Pune - 208246",31.02919121276706,94.98087311956536,2022-07-04 19:33:20,2022-07-04 21:32:39
201,Pearl Junction,"South Indian, Continental, Bakery",624,9702247585,9:00 AM - 22:00 PM,7,Yes,Open,Kata Street,"Third Floor, Kata Street, Pune - 208246",23.743932820881035,77.65763669396468,2023-10-27 19:12:08,2024-12-26 11:20:55
202,Taste Bites,"Mughlai, Ice Cream, Street Food",1584,9928917719,12:00 AM - 22:00 PM,7,Yes,Open,Pingle Street,"Second Floor, Pingle Street, Pune - 208246",26.214236138299547,74.18914202885317,2024-01-29 22:32:24,2024-06-23 17:16:33
203,Flavors Diner,"Lebanese, Thai, Burger",1779,9410315830,12:00 AM - 18:00 PM,7,Yes,Open,Korpal Zila,"Third Floor, Korpal Zila, Pune - 208246",17.657589754538684,78.6583306234473,2024-02-20 04:26:30,2024-05-19 23:13:47
204,Ruby Hub,"Japanese, Lebanese, Italian",1374,9826517607,11:00 AM - 20:00 PM,7,Yes,Open,Upadhyay Chowk,"Third Floor, Upadhyay Chowk, Pune - 208246",32.296621835812424,95.95408304982622,2023-12-07 01:06:25,2024-05-27 02:50:46
205,Crystal Restaurant,"South Indian, Lebanese",1662,9184857208,9:00 AM - 20:00 PM,7,Yes,Open,Choudhury Circle,"Second Floor, Choudhury Circle, Pune - 208246",30.222284191765745,74.80932337059856,2024-01-03 10:44:04,2025-02-27 15:19:13
206,Pearl Table,"Ice Cream, Japanese",481,9217281149,11:00 AM - 22:00 PM,7,Yes,Open,Deol Chowk," Deol Chowk, Pune - 208246",15.387036325631847,70.1493530252856,2023-12-13 06:59:23,2025-01-09 15:35:15
207,Ruby Table,Thai,307,9207586738,10:00 AM - 19:00 PM,7,Yes,Open,Krish,"Third Floor, Krish, Pune - 208246",11.33591121949856,90.70537095870587,2022-04-21 09:15:46,2025-02-06 15:00:09
208,Royal Table,Beverages,1537,9610778600,10:00 AM - 22:00 PM,7,Yes,Open,Bahl Circle,"First Floor, Bahl Circle, Pune - 208246",30.472602934735193,76.90084582246347,2023-04-24 15:14:07,2024-01-29 06:56:16
209,Urban House,Chinese,1535,9716470999,8:00 AM - 21:00 PM,7,Yes,Open,Chandra Street,"Ground Floor, Chandra Street, Pune - 208246",35.0663079895597,73.6980993399815,2022-12-28 12:43:27,2024-08-30 13:53:55
210,Ruby Junction,South Indian,1912,9526269674,10:00 AM - 18:00 PM,7,Yes,Open,Sawhney Path,"Second Floor, Sawhney Path, Pune - 208246",34.00090050320337,68.96457766010685,2023-12-03 20:36:00,2024-09-22 01:50:28
211,Silver Garden,Mughlai,782,9587853601,12:00 AM - 21:00 PM,7,Yes,Open,Ramaswamy Ganj," Ramaswamy Ganj, Pune - 208246",22.822242673981123,95.4959023247019,2022-08-01 21:23:20,2025-01-05 19:45:22
212,Pearl Table,"Japanese, Mexican",1856,9220953538,9:00 AM - 18:00 PM,7,Yes,Open,Mody Path,"Third Floor, Mody Path, Pune - 208246",27.329931890309858,89.21597785216558,2023-08-20 08:23:11,2024-02-22 10:29:05
213,Royal Palace,"Lebanese, Pizza",1581,9913126162,8:00 AM - 18:00 PM,7,Yes,Open,Kaur Zila," Kaur Zila, Pune - 208246",33.39947792478497,94.31057084893249,2023-01-10 02:19:39,2023-08-11 06:03:19
214,Blue Table,"Chinese, Desserts",1570,9202418976,8:00 AM - 18:00 PM,8,Yes,Open,Doctor Marg,"Third Floor, Doctor Marg, Ahmedabad - 639903",17.849168766484418,75.78174423869699,2023-10-02 03:38:27,2024-07-05 19:57:32
215,Urban Grill,Fast Food,1743,9386682971,9:00 AM - 19:00 PM,8,Yes,Open,Sathe Chowk," Sathe Chowk, Ahmedabad - 639903",29.508169829309125,69.0264902112435,2022-07-06 10:20:04,2024-06-15 12:34:01
216,Diamond Eatery,"Thai, South Indian, Italian",1153,9429430802,8:00 AM - 20:00 PM,8,Yes,Open,Bedi Ganj," Bedi Ganj, Ahmedabad - 639903",35.35469560725582,94.04673036997433,2023-07-31 20:39:39,2023-08-01 22:14:54
217,Crystal Diner,"Italian, Lebanese, Street Food",1458,9337135066,8:00 AM - 18:00 PM,8,Yes,Open,Lad Circle,"Third Floor, Lad Circle, Ahmedabad - 639903",12.873018488924034,90.04782960065695,2023-08-02 21:29:47,2024-03-26 08:14:28
218,Silver Eatery,"Ice Cream, Cafe",1751,9677155220,12:00 AM - 23:00 PM,8,Yes,Open,Anne Street,"First Floor, Anne Street, Ahmedabad - 639903",30.64630090315633,88.12376181369882,2023-09-14 17:29:54,2024-07-23 16:59:28
219,Silver Junction,Bakery,1114,9667121569,12:00 AM - 19:00 PM,8,Yes,Open,Muni Ganj,"Ground Floor, Muni Ganj, Ahmedabad - 639903",35.18354543800449,71.90356099838907,2023-01-11 01:50:32,2024-12-05 06:01:52
220,Pearl Table,"Mexican, Pizza, Ice Cream",506,9276670424,9:00 AM - 23:00 PM,8,Yes,Open,Dora Nagar," Dora Nagar, Ahmedabad - 639903",21.301744137661224,88.12242904316048,2023-01-01 18:50:38,2024-11-01 18:25:56
221,Emerald Garden,"Chinese, Bakery",1112,9968326513,7:00 AM - 20:00 PM,8,Yes,Open,Acharya Zila,"First Floor, Acharya Zila, Ahmedabad - 639903",23.386837021487935,81.74159648157406,2022-03-19 01:34:04,2023-09-08 02:47:01
222,Royal Table,"Lebanese, North Indian",1010,9373221357,7:00 AM - 22:00 PM,8,Yes,Open,Tank Road,"First Floor, Tank Road, Ahmedabad - 639903",25.286688939723838,69.99302386787951,2023-10-30 12:14:33,2024-01-17 10:30:48
223,Green Palace,Ice Cream,323,9174108740,10:00 AM - 17:00 PM,8,Yes,Open,Edwin Street,"Second Floor, Edwin Street, Ahmedabad - 639903",20.33891452592205,90.65415238675843,2022-07-01 09:41:12,2023-11-05 10:06:04
224,Crystal House,"Beverages, Street Food, Desserts",1118,9505333621,10:00 AM - 17:00 PM,8,Yes,Open,Andra Path," Andra Path, Ahmedabad - 639903",12.283302345001664,93.26118189117932,2023-10-01 07:00:09,2025-01-09 03:45:23
225,Spice Restaurant,"Desserts, Bakery, Continental",1690,9339111798,7:00 AM - 23:00 PM,8,Yes,Open,Sami Road,"Ground Floor, Sami Road, Ahmedabad - 639903",36.97192793423086,81.91876137911098,2023-10-07 09:11:39,2024-10-20 13:19:42
226,Emerald Table,"Ice Cream, Desserts",1886,9346599912,8:00 AM - 20:00 PM,8,Yes,Open,Rout Nagar,"Second Floor, Rout Nagar, Ahmedabad - 639903",12.929544097550005,74.081116882809,2022-11-05 06:59:48,2023-01-11 08:21:48
227,Ruby Palace,South Indian,1857,9808881871,10:00 AM - 21:00 PM,8,No,Closed,Sabharwal Path,"Ground Floor, Sabharwal Path, Ahmedabad - 639903",15.42745578898179,70.62115527749509,2023-10-04 02:35:53,2024-09-04 04:03:28
228,Silver Kitchen,"Burger, South Indian",701,9895149930,7:00 AM - 20:00 PM,8,Yes,Open,Andra Marg,"Third Floor, Andra Marg, Ahmedabad - 639903",15.2427069318368,74.90303595056915,2023-06-08 05:19:42,2023-11-12 07:02:15
229,Pearl Corner,Continental,1231,9410594268,8:00 AM - 23:00 PM,8,Yes,Open,Murty Zila," Murty Zila, Ahmedabad - 639903",17.71198793398041,85.77054960061585,2022-03-07 21:07:50,2023-12-24 17:58:03
230,Diamond Junction,"Thai, Lebanese",1994,9253824712,12:00 AM - 21:00 PM,8,Yes,Open,Purohit Street,"First Floor, Purohit Street, Ahmedabad - 639903",20.47595802824667,76.55564443052069,2023-03-12 17:57:49,2023-11-24 21:23:40
231,Golden Garden,"Mediterranean, Beverages, Ice Cream",1215,9150341410,9:00 AM - 22:00 PM,8,Yes,Open,Pandey Circle,"Third Floor, Pandey Circle, Ahmedabad - 639903",31.34549420263113,77.79986875638072,2022-04-21 07:42:13,2024-12-22 13:08:56
232,Blue Grill,Lebanese,970,9297438548,11:00 AM - 20:00 PM,8,Yes,Open,More Road,"First Floor, More Road, Ahmedabad - 639903",33.200755221993184,77.28602475660148,2022-05-14 22:14:29,2025-02-20 12:07:11
233,Emerald Restaurant,"South Indian, Ice Cream",1045,9547221915,11:00 AM - 21:00 PM,8,Yes,Open,Choudhry Road,"First Floor, Choudhry Road, Ahmedabad - 639903",19.74183622517786,75.98012568209516,2023-09-19 17:55:09,2024-07-07 20:59:55
234,Green House,Fast Food,1934,9498441427,7:00 AM - 21:00 PM,8,Yes,Open,Ravel Road,"First Floor, Ravel Road, Ahmedabad - 639903",9.904869570129204,79.46814568514625,2023-03-20 12:05:08,2023-08-20 21:44:47
235,Silver Garden,Chinese,585,9963987020,11:00 AM - 22:00 PM,8,Yes,Open,Bakshi Nagar," Bakshi Nagar, Ahmedabad - 639903",14.736882433282663,74.66378347816675,2023-11-22 10:43:54,2024-07-16 07:22:03
236,Ruby Eatery,"North Indian, Mexican",589,9896152940,7:00 AM - 22:00 PM,8,Yes,Open,Sharma Zila,"Third Floor, Sharma Zila, Ahmedabad - 639903",35.10168586584718,88.56013045687723,2022-10-16 16:52:49,2023-12-21 02:38:13
237,Emerald Cafe,"Thai, Ice Cream",858,9932701695,9:00 AM - 20:00 PM,8,Yes,Open,Basu Nagar,"Third Floor, Basu Nagar, Ahmedabad - 639903",23.982583720554885,78.95686031099748,2022-09-27 07:11:08,2022-12-19 18:52:04
238,Urban Eatery,"Cafe, Fast Food, Italian",1844,9875685667,10:00 AM - 23:00 PM,8,Yes,Open,Munshi Marg,"Second Floor, Munshi Marg, Ahmedabad - 639903",35.09845056780669,79.28362550686244,2022-06-13 09:48:57,2023-04-25 06:43:27
239,Blue Kitchen,"Thai, Continental, North Indian",734,9694113766,11:00 AM - 21:00 PM,8,Yes,Open,Comar Marg,"Third Floor, Comar Marg, Ahmedabad - 639903",17.019614795225955,74.30127539685111,2022-05-02 19:43:33,2022-09-11 14:46:57
240,Flavors Grill,"Thai, Cafe, Ice Cream",1540,9835348453,9:00 AM - 19:00 PM,8,Yes,Open,Raman Road,"Third Floor, Raman Road, Ahmedabad - 639903",36.622041403710035,87.02037667308309,2023-10-04 03:13:34,2024-01-07 12:24:21
241,Red Bites,Street Food,546,9250279322,12:00 AM - 21:00 PM,8,No,Closed,Deshpande Circle,"Third Floor, Deshpande Circle, Ahmedabad - 639903",13.774194967549011,94.09135732336347,2024-01-14 13:49:23,2024-11-30 16:39:06
242,Diamond Kitchen,"South Indian, Chinese, Burger",1765,9106854580,10:00 AM - 18:00 PM,8,No,Closed,Sura Marg,"First Floor, Sura Marg, Ahmedabad - 639903",10.384663896630341,73.01189640656851,2023-09-17 19:49:35,2024-07-06 12:39:45
243,Flavors Table,"Street Food, South Indian",1465,9784755860,12:00 AM - 21:00 PM,8,No,Closed,Mann Ganj,"Third Floor, Mann Ganj, Ahmedabad - 639903",27.651102786103998,69.14914194411622,2022-06-23 11:44:50,2023-03-21 19:42:19
244,Golden Table,"North Indian, Burger",1284,9875448533,9:00 AM - 21:00 PM,8,Yes,Open,Chadha Path,"Second Floor, Chadha Path, Ahmedabad - 639903",8.900563849990874,91.91563865709213,2022-06-29 21:10:50,2024-07-23 10:37:37
245,Diamond Grill,Italian,397,9663054538,8:00 AM - 18:00 PM,8,Yes,Open,Bhatt Path,"First Floor, Bhatt Path, Ahmedabad - 639903",26.497600598428512,75.90653950478413,2023-05-20 12:08:50,2023-06-09 07:13:27
246,Green Diner,"Chinese, Street Food",1031,9592845076,11:00 AM - 18:00 PM,8,No,Closed,Mall Nagar,"First Floor, Mall Nagar, Ahmedabad - 639903",17.159259497925753,92.34117234726702,2022-08-26 01:27:43,2023-06-14 03:11:55
247,Spice House,"South Indian, Chinese, Desserts",976,9504982743,11:00 AM - 20:00 PM,8,Yes,Open,Banerjee Ganj,"Ground Floor, Banerjee Ganj, Ahmedabad - 639903",26.993043806224655,88.76622903304548,2022-09-14 07:06:58,2023-01-27 15:24:35
248,Spice Bites,"Mughlai, Pizza",1957,9202393989,11:00 AM - 17:00 PM,8,No,Closed,Balay Street,"First Floor, Balay Street, Ahmedabad - 639903",14.573378031828778,93.48473722610484,2023-09-06 17:36:29,2024-07-27 02:52:34
249,Ruby Garden,"Japanese, South Indian",352,9834899763,9:00 AM - 21:00 PM,8,No,Closed,Srinivas Road," Srinivas Road, Ahmedabad - 639903",27.616789821987837,73.82057106693297,2023-10-05 18:28:46,2024-08-23 07:47:12
250,Pearl Eatery,Mexican,1402,9254824511,12:00 AM - 23:00 PM,8,Yes,Open,Goyal Chowk,"Third Floor, Goyal Chowk, Ahmedabad - 639903",35.52314825539719,77.24435519753362,2023-10-24 06:10:23,2023-12-06 10:12:50
251,Silver Cafe,"Desserts, Ice Cream, Mughlai",986,9911329267,12:00 AM - 18:00 PM,8,Yes,Open,Talwar Marg,"Ground Floor, Talwar Marg, Ahmedabad - 639903",23.023151267821575,96.5169309982977,2023-10-02 20:29:42,2024-01-26 12:24:26
252,Royal Bistro,"Thai, Chinese",897,9749794986,11:00 AM - 21:00 PM,8,Yes,Open,Mital Zila,"Third Floor, Mital Zila, Ahmedabad - 639903",36.69247939428541,78.01805327121774,2023-07-21 21:22:44,2024-01-28 04:25:50
253,Diamond Diner,"Cafe, Thai",928,9693819730,10:00 AM - 20:00 PM,8,Yes,Open,Sidhu Circle,"First Floor, Sidhu Circle, Ahmedabad - 639903",28.24708985617424,87.56218295954969,2023-12-15 15:52:09,2024-03-13 08:44:39
254,Spice Corner,"Lebanese, Thai, Chinese",368,9387732777,8:00 AM - 20:00 PM,8,Yes,Open,Khare Nagar,"First Floor, Khare Nagar, Ahmedabad - 639903",29.997934438116566,77.74116342885786,2024-01-23 21:20:36,2024-08-30 08:28:49
255,Spice Bistro,Lebanese,1110,9486458467,9:00 AM - 17:00 PM,8,Yes,Open,Hans Road,"First Floor, Hans Road, Ahmedabad - 639903",10.94907918476939,81.00446518111592,2022-07-10 19:40:16,2023-01-21 20:30:38
256,Golden Table,"Beverages, Italian, North Indian",383,9480012570,11:00 AM - 17:00 PM,8,Yes,Open,Dhingra Marg," Dhingra Marg, Ahmedabad - 639903",25.86287889559277,77.96248593784239,2022-04-10 15:49:19,2024-08-03 04:07:48
257,Blue Kitchen,"Beverages, Desserts",1795,9190945411,12:00 AM - 21:00 PM,8,No,Closed,Sawhney Road,"First Floor, Sawhney Road, Ahmedabad - 639903",25.101244577886554,73.5415924628509,2023-03-18 01:39:36,2023-05-02 21:04:55
258,Blue Restaurant,Japanese,816,9388199600,10:00 AM - 18:00 PM,8,Yes,Open,Aggarwal Path,"Ground Floor, Aggarwal Path, Ahmedabad - 639903",13.282456102166673,76.57871143424862,2023-10-24 05:07:48,2024-09-14 07:17:37
259,Urban Bites,Street Food,715,9364774064,12:00 AM - 22:00 PM,8,Yes,Open,Loke Road,"Third Floor, Loke Road, Ahmedabad - 639903",25.739146822741098,74.28290182033143,2023-02-05 03:36:03,2024-09-10 06:32:55
260,Taste Diner,Desserts,880,9765926290,10:00 AM - 23:00 PM,9,Yes,Open,Bera Marg,"Second Floor, Bera Marg, Jaipur - 698508",21.254509307252597,80.99409310804177,2022-12-13 22:13:44,2024-03-02 18:38:50
261,Pearl Junction,"Burger, Continental, Lebanese",856,9747693166,12:00 AM - 18:00 PM,9,Yes,Open,Suri,"Third Floor, Suri, Jaipur - 698508",17.57415181090689,96.23860548935636,2023-08-26 19:04:21,2024-04-25 04:24:03
262,Green Diner,"Cafe, Pizza, Thai",867,9503786306,9:00 AM - 23:00 PM,9,No,Closed,Doctor Circle,"Third Floor, Doctor Circle, Jaipur - 698508",19.058453691940937,95.31051720640012,2023-12-23 03:40:54,2024-05-15 14:00:23
263,Flavors Garden,"Mediterranean, Ice Cream, North Indian",1689,9595663087,12:00 AM - 18:00 PM,9,Yes,Open,Gole Road,"Third Floor, Gole Road, Jaipur - 698508",31.692417214116986,92.43309563868081,2023-05-01 13:06:37,2025-01-28 15:44:56
264,Spice Junction,"Cafe, Continental",1497,9425164079,8:00 AM - 19:00 PM,9,Yes,Open,Nanda Nagar,"First Floor, Nanda Nagar, Jaipur - 698508",29.284902625943246,91.22814158993279,2022-03-17 21:01:11,2024-12-08 01:44:00
265,Spice Bites,"Cafe, Pizza, Desserts",1294,9643971182,12:00 AM - 20:00 PM,9,Yes,Open,Mittal," Mittal, Jaipur - 698508",9.473542790778358,96.34862056310897,2022-04-23 14:59:12,2023-01-14 13:18:38
266,Emerald Hub,"Burger, Chinese, Italian",1774,9366535973,12:00 AM - 22:00 PM,9,Yes,Open,Iyer,"Second Floor, Iyer, Jaipur - 698508",13.257084003779259,86.19195411104464,2023-08-15 20:18:50,2023-11-13 10:24:07
267,Silver House,"Desserts, Mughlai, Beverages",416,9111325589,7:00 AM - 19:00 PM,9,Yes,Open,Sathe Nagar,"First Floor, Sathe Nagar, Jaipur - 698508",23.311746223331305,83.51167624354893,2022-08-01 10:33:23,2024-11-10 07:17:07
268,Silver Palace,"Thai, Fast Food, Street Food",1001,9597210335,12:00 AM - 21:00 PM,9,Yes,Open,Dara Ganj," Dara Ganj, Jaipur - 698508",12.801752028413471,97.18441281058836,2022-12-12 18:13:29,2024-02-14 03:52:32
269,Red Bistro,"Beverages, Chinese",437,9992620629,12:00 AM - 18:00 PM,9,Yes,Open,Dugar Path,"Second Floor, Dugar Path, Jaipur - 698508",17.50719804180821,81.6997467356988,2022-12-25 03:56:58,2024-01-11 04:06:48
270,Flavors Table,"Street Food, Cafe",399,9570477095,12:00 AM - 22:00 PM,9,Yes,Open,Aurora Nagar,"Third Floor, Aurora Nagar, Jaipur - 698508",17.712156647156853,77.2725395748444,2022-07-07 20:58:19,2024-09-06 13:43:56
271,Crystal Palace,North Indian,1939,9468377143,12:00 AM - 17:00 PM,9,Yes,Open,Ben Street,"First Floor, Ben Street, Jaipur - 698508",35.553735437466905,89.8409747880974,2023-04-27 16:51:48,2023-11-27 01:53:35
272,Golden Restaurant,"Mediterranean, Mughlai, Ice Cream",1073,9596126873,8:00 AM - 23:00 PM,9,Yes,Open,Prabhakar Chowk,"Third Floor, Prabhakar Chowk, Jaipur - 698508",26.789001311257422,74.02134671684856,2024-02-08 19:54:37,2024-10-07 13:25:12
273,Diamond Grill,"North Indian, Mexican",1120,9735873300,10:00 AM - 20:00 PM,9,Yes,Open,Saini Road,"Ground Floor, Saini Road, Jaipur - 698508",28.978279986024248,74.57514688593704,2022-03-20 02:07:38,2024-09-24 21:08:13
274,Crystal Palace,Pizza,408,9958459117,11:00 AM - 18:00 PM,9,No,Closed,Badami Zila,"Second Floor, Badami Zila, Jaipur - 698508",17.9187594186855,81.7630645539866,2022-12-11 11:38:03,2025-02-14 13:01:12
275,Urban House,"Bakery, Mughlai",1422,9517298229,11:00 AM - 20:00 PM,9,Yes,Open,Karan Nagar," Karan Nagar, Jaipur - 698508",11.735576541419324,78.74916959210883,2023-11-11 01:12:37,2024-02-24 16:16:14
276,Red Garden,Lebanese,1458,9733688460,7:00 AM - 22:00 PM,9,Yes,Open,Sekhon Chowk,"First Floor, Sekhon Chowk, Jaipur - 698508",17.545023750078382,75.51125133982747,2022-07-31 15:56:16,2022-10-28 14:27:43
277,Spice Restaurant,"Continental, Bakery",995,9549080818,11:00 AM - 18:00 PM,9,Yes,Open,Ravel Ganj," Ravel Ganj, Jaipur - 698508",19.604330914860462,74.00326811480846,2022-09-22 10:15:55,2023-12-14 17:24:26
278,Diamond Table,"Mediterranean, Ice Cream, Burger",1202,9410133983,8:00 AM - 18:00 PM,9,Yes,Open,Mody Circle,"Second Floor, Mody Circle, Jaipur - 698508",32.9859682527872,86.38415489443095,2022-12-05 18:19:52,2024-01-18 14:47:18
279,Pearl Eatery,Cafe,479,9309517616,10:00 AM - 21:00 PM,9,Yes,Open,Barman Ganj," Barman Ganj, Jaipur - 698508",27.469637009897234,80.38078564590282,2022-07-26 14:31:06,2024-11-25 20:54:11
280,Red Grill,"Fast Food, Cafe, Mediterranean",369,9707091264,7:00 AM - 23:00 PM,9,Yes,Open,Chaudhary Zila,"First Floor, Chaudhary Zila, Jaipur - 698508",16.929025359114235,76.5470508167094,2022-08-20 10:08:40,2024-01-10 14:15:55
281,Golden Diner,Fast Food,1358,9897272900,10:00 AM - 21:00 PM,9,Yes,Open,Bhat Marg," Bhat Marg, Jaipur - 698508",11.705761062527078,71.96059989629856,2023-10-08 06:03:54,2024-06-10 16:07:15
282,Crystal Table,"Ice Cream, South Indian",1756,9871999153,10:00 AM - 21:00 PM,9,Yes,Open,Chokshi Path,"First Floor, Chokshi Path, Jaipur - 698508",37.301451253999154,71.62398932995258,2022-04-06 16:25:00,2025-02-01 01:22:11
283,Diamond Corner,Lebanese,1991,9134607126,10:00 AM - 19:00 PM,10,Yes,Open,Ranganathan Marg,"Second Floor, Ranganathan Marg, Lucknow - 791453",33.57622906452771,71.18336482111697,2022-09-22 02:40:25,2023-12-28 18:28:14
284,Pearl Bistro,Mexican,1860,9892005907,11:00 AM - 22:00 PM,10,Yes,Open,Devi,"Second Floor, Devi, Lucknow - 791453",33.54262193109107,86.12297446478607,2022-06-06 21:17:54,2024-01-24 12:29:53
285,Blue Restaurant,"Continental, Mexican, Pizza",1849,9163734988,11:00 AM - 19:00 PM,10,Yes,Open,Vohra Path," Vohra Path, Lucknow - 791453",16.607682548673782,84.08184198966006,2022-07-23 13:47:54,2024-10-07 10:13:19
286,Green Palace,"Lebanese, Pizza",747,9652348887,12:00 AM - 23:00 PM,10,Yes,Open,Munshi Ganj,"Ground Floor, Munshi Ganj, Lucknow - 791453",12.359196067697868,90.11518759676426,2022-03-25 03:46:04,2023-11-15 12:38:47
287,Blue Hub,Japanese,1975,9804263267,8:00 AM - 22:00 PM,10,Yes,Open,Patel Chowk,"First Floor, Patel Chowk, Lucknow - 791453",15.690575464593682,89.01032293435827,2023-09-12 18:21:04,2024-07-11 02:41:24
288,Pearl Cafe,"Desserts, Cafe, Continental",1382,9779036456,9:00 AM - 22:00 PM,10,Yes,Open,Suri Chowk,"Third Floor, Suri Chowk, Lucknow - 791453",19.35503197310983,70.8559896036243,2022-06-24 09:00:02,2022-08-21 23:41:12
289,Crystal Hub,Desserts,1255,9905094179,9:00 AM - 22:00 PM,10,Yes,Open,Dayal Circle,"Second Floor, Dayal Circle, Lucknow - 791453",21.67711295297309,82.63366991649649,2022-06-26 15:05:57,2024-01-22 08:58:59
290,Silver Kitchen,"Chinese, Fast Food, Street Food",1941,9168000803,11:00 AM - 20:00 PM,10,Yes,Open,Iyengar Circle,"First Floor, Iyengar Circle, Lucknow - 791453",36.66935453821405,92.24940034000844,2023-11-28 00:22:55,2024-03-06 11:25:44
291,Red Diner,"Lebanese, Mughlai",1320,9720551525,8:00 AM - 21:00 PM,10,Yes,Open,Sami Street,"Third Floor, Sami Street, Lucknow - 791453",31.418466681519128,94.22811548700078,2022-03-21 01:34:49,2025-01-30 08:45:00
292,Crystal Kitchen,Italian,1482,9941695219,10:00 AM - 17:00 PM,10,Yes,Open,Mammen Chowk,"Ground Floor, Mammen Chowk, Lucknow - 791453",35.53943996014764,73.2104293525123,2022-05-01 15:38:57,2023-02-16 04:20:42
293,Red Kitchen,"Mexican, Continental",1531,9424125621,8:00 AM - 23:00 PM,10,Yes,Open,Dass Circle,"Second Floor, Dass Circle, Lucknow - 791453",11.125527548148993,78.9904301959918,2023-07-07 18:30:48,2024-08-05 05:01:57
294,Spice Eatery,"Mediterranean, South Indian, Desserts",1481,9428038048,12:00 AM - 22:00 PM,10,Yes,Open,Shenoy Chowk,"First Floor, Shenoy Chowk, Lucknow - 791453",20.933543470056122,71.3037367950423,2022-06-04 09:58:15,2024-04-15 02:53:03
295,Spice Kitchen,Cafe,359,9242485313,11:00 AM - 18:00 PM,10,Yes,Open,Setty Path," Setty Path, Lucknow - 791453",28.255495573550114,68.96514235422154,2022-07-10 00:43:00,2023-10-29 05:22:54
296,Emerald Eatery,Beverages,1621,9241921987,10:00 AM - 17:00 PM,10,Yes,Open,Bose Nagar,"First Floor, Bose Nagar, Lucknow - 791453",19.585641829732566,89.56329454936137,2022-12-10 02:23:44,2023-02-13 23:32:50
297,Spice Bistro,"Street Food, Lebanese",480,9510943598,8:00 AM - 22:00 PM,10,Yes,Open,Rattan Chowk,"First Floor, Rattan Chowk, Lucknow - 791453",10.397618939659308,84.781964173108,2022-03-12 21:32:12,2023-07-26 17:39:26
298,Silver House,Fast Food,919,9875705487,8:00 AM - 22:00 PM,10,Yes,Open,Rege Nagar,"First Floor, Rege Nagar, Lucknow - 791453",35.26090843991882,86.28897015975016,2022-09-02 14:50:24,2022-09-12 08:07:31
299,Red Junction,Chinese,405,9250337960,7:00 AM - 21:00 PM,10,Yes,Open,Lal Nagar,"Third Floor, Lal Nagar, Lucknow - 791453",18.664840699187387,80.95904857016414,2023-03-31 08:23:05,2024-01-11 02:19:00
300,Crystal Restaurant,Japanese,1520,9190461372,8:00 AM - 21:00 PM,10,Yes,Open,Yohannan Zila," Yohannan Zila, Lucknow - 791453",25.920229722994904,86.0467829740382,2023-12-05 00:06:09,2024-02-18 09:50:38
301,Crystal Palace,Lebanese,620,9655928892,11:00 AM - 21:00 PM,10,Yes,Open,Bali Ganj,"First Floor, Bali Ganj, Lucknow - 791453",30.23703431665249,77.13772556296101,2023-02-09 06:57:44,2023-03-21 17:28:37
302,Royal Corner,Cafe,990,9221057584,8:00 AM - 20:00 PM,10,Yes,Open,Parmar Chowk," Parmar Chowk, Lucknow - 791453",10.473550449505192,94.07308527688122,2022-05-14 00:24:22,2023-03-04 12:08:28
303,Royal Eatery,"Continental, Desserts",1962,9710293796,10:00 AM - 19:00 PM,10,Yes,Open,Bahl Zila," Bahl Zila, Lucknow - 791453",28.341907830870845,90.47582552691898,2024-01-16 12:56:39,2025-02-08 04:11:34
304,Crystal Bistro,Pizza,338,9114810579,9:00 AM - 18:00 PM,10,Yes,Open,Narula Road,"Ground Floor, Narula Road, Lucknow - 791453",35.33931523684927,95.7848139128404,2024-02-18 08:29:23,2024-04-13 21:36:53
305,Blue Table,"Bakery, Beverages",1067,9853563434,10:00 AM - 17:00 PM,10,Yes,Open,Dara Circle," Dara Circle, Lucknow - 791453",24.099536457572686,73.05902667061764,2022-08-17 03:47:08,2023-02-03 03:04:46
306,Spice Diner,Bakery,616,9967647911,8:00 AM - 21:00 PM,10,No,Closed,Soni Street,"Second Floor, Soni Street, Lucknow - 791453",19.809359886675814,86.80910076193548,2023-10-29 05:39:40,2025-02-12 21:01:53
307,Pearl House,"Chinese, Lebanese, Beverages",1694,9356234948,7:00 AM - 18:00 PM,10,Yes,Open,Bhatti Ganj,"Ground Floor, Bhatti Ganj, Lucknow - 791453",35.399130426994866,72.01141690309171,2023-05-27 11:23:05,2023-12-13 14:01:47
308,Silver Garden,Lebanese,1564,9896387342,12:00 AM - 22:00 PM,10,Yes,Open,Tata Path,"First Floor, Tata Path, Lucknow - 791453",11.887735801710313,88.9105623332217,2022-05-20 14:29:46,2022-05-24 15:17:33
309,Emerald Kitchen,Cafe,910,9661572729,11:00 AM - 23:00 PM,10,Yes,Open,Nayak Road,"Second Floor, Nayak Road, Lucknow - 791453",13.275318262417521,72.32386884358611,2023-05-03 14:19:46,2024-09-15 20:56:08
310,Crystal Junction,"Italian, North Indian",886,9966625455,10:00 AM - 19:00 PM,10,Yes,Open,Sehgal Chowk," Sehgal Chowk, Lucknow - 791453",10.265062082395923,89.03682873612415,2023-02-02 05:37:02,2024-09-12 00:00:05
311,Silver House,Cafe,1132,9648447868,9:00 AM - 17:00 PM,10,Yes,Open,Doctor Ganj,"Third Floor, Doctor Ganj, Lucknow - 791453",33.49330565447416,73.46446376031254,2023-02-27 07:23:12,2024-02-22 04:38:34
312,Taste Diner,Pizza,1580,9876077372,7:00 AM - 18:00 PM,10,Yes,Open,Barad Zila," Barad Zila, Lucknow - 791453",8.475000376149316,93.21557121043361,2022-11-27 14:19:10,2023-01-08 04:25:05
313,Royal Cafe,Cafe,945,9511221078,8:00 AM - 18:00 PM,10,Yes,Open,Ramaswamy Road,"Ground Floor, Ramaswamy Road, Lucknow - 791453",24.543651824079248,94.79320596482823,2022-07-07 04:42:37,2024-08-05 14:35:45
314,Emerald House,"Thai, Mughlai",708,9546952114,12:00 AM - 19:00 PM,10,No,Closed,Hari Path,"Second Floor, Hari Path, Lucknow - 791453",32.51911227013396,85.01735173272843,2022-05-01 15:56:59,2023-08-03 05:58:02
315,Spice Table,"South Indian, Mediterranean, Thai",1847,9653808250,7:00 AM - 20:00 PM,10,Yes,Open,Boase Chowk,"Ground Floor, Boase Chowk, Lucknow - 791453",34.00814415500127,93.42522016584769,2022-05-10 07:48:53,2024-01-16 15:30:34
316,Crystal Junction,"Mughlai, Chinese",1332,9590427473,7:00 AM - 19:00 PM,10,Yes,Open,Baral Street,"First Floor, Baral Street, Lucknow - 791453",16.914576647156153,91.0976810535536,2022-03-31 06:24:04,2024-05-30 14:18:53
317,Emerald Garden,Fast Food,954,9735323297,10:00 AM - 23:00 PM,10,Yes,Open,Balan Ganj,"First Floor, Balan Ganj, Lucknow - 791453",29.787929432786584,84.30426637650852,2022-08-07 07:30:15,2022-09-05 20:43:51
318,Crystal Cafe,North Indian,1039,9125673445,8:00 AM - 21:00 PM,10,Yes,Open,Palla Path,"Second Floor, Palla Path, Lucknow - 791453",26.96950171377928,88.49830601955965,2024-01-12 16:18:36,2024-09-16 06:18:20
319,Royal Eatery,Desserts,1938,9892510222,12:00 AM - 19:00 PM,10,Yes,Open,Pillai Street,"Ground Floor, Pillai Street, Lucknow - 791453",14.391675688852242,96.76795443109933,2022-07-04 02:31:49,2022-08-23 23:03:00
320,Blue Bites,Continental,1657,9400460098,7:00 AM - 17:00 PM,10,Yes,Open,Yohannan Street,"First Floor, Yohannan Street, Lucknow - 791453",34.60079418039861,83.53912568794766,2023-08-18 06:05:33,2024-07-30 23:38:40
321,Emerald Hub,"Fast Food, Chinese",1389,9202625025,11:00 AM - 18:00 PM,10,Yes,Open,Kari Road,"Third Floor, Kari Road, Lucknow - 791453",10.585050142432422,84.9112817926569,2023-12-10 05:38:32,2024-03-11 19:05:01
322,Blue House,Thai,797,9380236885,9:00 AM - 23:00 PM,10,Yes,Open,Manne Path,"Third Floor, Manne Path, Lucknow - 791453",28.861187704589035,89.6943244037366,2023-07-14 04:41:45,2023-08-22 07:11:58
323,Green Bites,"Thai, Chinese",615,9246148980,11:00 AM - 17:00 PM,10,Yes,Open,Doctor Zila,"First Floor, Doctor Zila, Lucknow - 791453",11.485206302998584,81.5351306479862,2022-07-29 23:28:24,2023-11-23 01:22:31
324,Green Grill,Ice Cream,933,9927142786,8:00 AM - 20:00 PM,10,Yes,Open,Dhaliwal Zila,"Second Floor, Dhaliwal Zila, Lucknow - 791453",21.929720575647288,93.03836640062579,2023-12-25 02:35:50,2024-05-03 13:20:09
325,Spice Restaurant,"Lebanese, South Indian, Mexican",1911,9451965766,8:00 AM - 17:00 PM,10,No,Closed,Bhatt Circle,"First Floor, Bhatt Circle, Lucknow - 791453",36.67728012194998,80.01277940950746,2023-12-12 19:30:31,2024-11-02 23:38:45
326,Royal House,"Japanese, Mediterranean",263,9534212844,10:00 AM - 21:00 PM,10,Yes,Open,Batra Marg," Batra Marg, Lucknow - 791453",15.695696744069291,81.89133475541662,2023-02-10 06:30:08,2024-02-11 01:49:29
327,Crystal Corner,Italian,224,9166216779,8:00 AM - 18:00 PM,10,Yes,Open,Sarkar,"First Floor, Sarkar, Lucknow - 791453",32.45126372349999,79.32744468594673,2022-07-08 02:44:33,2023-07-07 06:59:09
328,Diamond House,Pizza,1400,9377906552,7:00 AM - 17:00 PM,10,Yes,Open,Yogi Zila,"Ground Floor, Yogi Zila, Lucknow - 791453",14.174309831506651,87.14292586900267,2022-12-21 00:18:33,2023-02-11 06:01:18
329,Taste Bistro,"Italian, South Indian",1144,9154371817,8:00 AM - 21:00 PM,11,Yes,Open,Gade Chowk,"Third Floor, Gade Chowk, Chandigarh - 549898",32.39321372474269,79.9772125487358,2023-12-10 08:20:20,2025-01-18 15:47:52
330,Royal Grill,"Beverages, Mediterranean, Street Food",639,9300951978,9:00 AM - 19:00 PM,11,Yes,Open,Singh Circle,"Third Floor, Singh Circle, Chandigarh - 549898",34.19597492769388,69.6892416185345,2024-02-26 10:43:36,2025-01-10 04:49:13
331,Silver Garden,Lebanese,1221,9542373256,11:00 AM - 20:00 PM,11,Yes,Open,Rama Path,"Ground Floor, Rama Path, Chandigarh - 549898",10.961469290923018,79.6350861304856,2024-03-02 16:33:54,2024-12-14 17:46:29
332,Blue Cafe,"Bakery, Thai, Ice Cream",1827,9120970156,10:00 AM - 23:00 PM,11,Yes,Open,Mammen Marg,"Second Floor, Mammen Marg, Chandigarh - 549898",22.406785615532996,91.00997227160335,2023-03-04 12:28:45,2023-10-10 23:37:18
333,Green Hub,"Bakery, Mughlai, Desserts",753,9293075824,7:00 AM - 19:00 PM,11,Yes,Open,Anne Nagar," Anne Nagar, Chandigarh - 549898",14.795389491734362,94.27408451508866,2022-04-27 14:51:09,2022-11-14 20:15:52
334,Crystal Diner,Cafe,1284,9483790644,11:00 AM - 18:00 PM,11,Yes,Open,Nair Chowk,"First Floor, Nair Chowk, Chandigarh - 549898",11.323922649304762,87.45347923029149,2024-01-21 06:47:18,2024-12-28 10:34:51
335,Urban Table,"South Indian, Thai, Desserts",926,9286521875,8:00 AM - 18:00 PM,11,Yes,Open,Bansal," Bansal, Chandigarh - 549898",17.685727554122646,89.77290063699513,2024-03-01 21:26:15,2024-10-27 23:31:49
336,Green Hub,"North Indian, Street Food, Continental",1353,9302114356,10:00 AM - 21:00 PM,11,Yes,Open,Bath,"Second Floor, Bath, Chandigarh - 549898",13.526257615691003,69.78386481126284,2022-06-09 14:48:46,2023-09-02 16:31:59
337,Royal Cafe,"Thai, North Indian, Bakery",1178,9100733897,9:00 AM - 21:00 PM,11,Yes,Open,Mangal Marg,"First Floor, Mangal Marg, Chandigarh - 549898",31.948206068652084,78.42867071381636,2023-08-26 21:44:18,2024-03-31 02:44:16
338,Taste Hub,"South Indian, North Indian",502,9729866807,12:00 AM - 18:00 PM,11,Yes,Open,Sethi Road,"Ground Floor, Sethi Road, Chandigarh - 549898",33.117241917310736,93.27211327118877,2022-08-15 17:52:34,2024-03-03 11:15:25
339,Spice Eatery,"Desserts, Pizza, Italian",889,9424017866,9:00 AM - 18:00 PM,11,Yes,Open,Rastogi Ganj,"First Floor, Rastogi Ganj, Chandigarh - 549898",29.78467914239951,81.17259233263958,2023-01-23 08:42:26,2024-06-13 04:25:27
340,Diamond Bites,"Mughlai, Mediterranean, Ice Cream",1620,9758965006,9:00 AM - 18:00 PM,11,Yes,Open,Toor Ganj," Toor Ganj, Chandigarh - 549898",32.182063704135025,79.5028662876025,2022-09-01 12:52:27,2023-01-25 06:31:31
341,Emerald Palace,"Continental, Mediterranean",1692,9101930485,12:00 AM - 21:00 PM,11,Yes,Open,Bala,"Third Floor, Bala, Chandigarh - 549898",33.242103393622244,90.70720770810546,2023-10-14 00:53:48,2025-01-01 15:04:55
342,Silver Kitchen,Burger,851,9968449816,11:00 AM - 18:00 PM,11,Yes,Open,Aggarwal Chowk," Aggarwal Chowk, Chandigarh - 549898",11.440018804008389,82.86608340341871,2022-11-06 09:28:36,2024-03-22 20:18:02
343,Green Palace,Thai,910,9443080569,8:00 AM - 22:00 PM,11,Yes,Open,Mital Path,"Ground Floor, Mital Path, Chandigarh - 549898",32.39252471850665,87.82920150530623,2023-04-27 21:02:40,2023-07-25 05:45:37
344,Emerald Hub,"Fast Food, North Indian",743,9325146786,8:00 AM - 22:00 PM,11,Yes,Open,Ratta Nagar,"Ground Floor, Ratta Nagar, Chandigarh - 549898",18.63404992740163,91.16942117388835,2023-03-29 07:20:06,2023-04-05 20:49:19
345,Emerald Kitchen,Desserts,1097,9886606608,10:00 AM - 18:00 PM,11,Yes,Open,Dara Path,"Third Floor, Dara Path, Chandigarh - 549898",22.797994209436354,79.5122440098051,2023-07-21 17:00:54,2024-12-14 23:27:08
346,Golden Grill,Cafe,1815,9720682356,12:00 AM - 23:00 PM,11,Yes,Open,Sahota Ganj,"First Floor, Sahota Ganj, Chandigarh - 549898",13.149570143055861,70.80440307197723,2022-07-17 00:16:35,2022-09-13 02:54:03
347,Pearl Kitchen,"North Indian, Mughlai",734,9212447665,7:00 AM - 19:00 PM,11,Yes,Open,Iyengar Chowk,"First Floor, Iyengar Chowk, Chandigarh - 549898",34.32759301784166,73.29382332971822,2023-10-19 23:41:17,2023-10-21 10:53:15
348,Spice Table,Mughlai,1416,9758896006,10:00 AM - 22:00 PM,11,Yes,Open,Dara Zila,"Ground Floor, Dara Zila, Chandigarh - 549898",20.994641357059137,87.36128425382577,2023-04-02 10:11:50,2023-12-22 19:47:12
349,Silver Hub,"Mediterranean, South Indian",407,9455510103,8:00 AM - 18:00 PM,11,Yes,Open,Khatri Path,"Third Floor, Khatri Path, Chandigarh - 549898",28.758143751174828,89.31418788563553,2023-05-14 02:51:24,2023-10-19 13:19:04
350,Emerald Table,"Lebanese, Burger",686,9202988942,7:00 AM - 20:00 PM,11,Yes,Open,Lanka," Lanka, Chandigarh - 549898",24.450148899285132,82.71657327625896,2024-02-25 20:36:00,2024-08-02 19:45:44
351,Royal Eatery,Beverages,379,9416270056,12:00 AM - 22:00 PM,11,Yes,Open,Brar," Brar, Chandigarh - 549898",22.425589205551923,71.46897592309679,2023-06-21 23:33:05,2023-10-27 20:31:13
352,Flavors Restaurant,"Lebanese, Chinese, Cafe",1928,9224026766,9:00 AM - 23:00 PM,11,Yes,Open,Mani Chowk,"Third Floor, Mani Chowk, Chandigarh - 549898",22.151578026128014,94.2487521512262,2022-04-29 19:02:17,2022-12-29 17:45:06
353,Urban Bistro,"Ice Cream, Desserts, Mediterranean",959,9509573649,9:00 AM - 18:00 PM,11,Yes,Open,Saran Path,"Third Floor, Saran Path, Chandigarh - 549898",9.70281420117797,81.25458907244656,2022-10-25 10:56:13,2023-03-05 23:24:57
354,Urban Cafe,"Pizza, South Indian",509,9907706333,12:00 AM - 22:00 PM,11,Yes,Open,Thaman Marg,"Ground Floor, Thaman Marg, Chandigarh - 549898",10.90265350572558,78.51524408588963,2023-03-13 11:38:07,2025-01-11 15:04:23
355,Golden Grill,"Thai, Ice Cream, South Indian",1921,9515652006,11:00 AM - 20:00 PM,11,Yes,Open,Bhatnagar Ganj," Bhatnagar Ganj, Chandigarh - 549898",28.4623836257555,95.43311898675736,2024-01-18 22:53:03,2024-08-02 17:52:43
356,Silver Hub,Cafe,812,9184777341,10:00 AM - 23:00 PM,11,Yes,Open,Korpal Chowk,"Ground Floor, Korpal Chowk, Chandigarh - 549898",23.061362933215662,94.40799200501395,2023-08-04 23:07:47,2024-05-28 01:50:56
357,Crystal Garden,"Burger, Continental, Italian",1750,9582152746,8:00 AM - 18:00 PM,11,Yes,Open,Ramakrishnan Ganj,"First Floor, Ramakrishnan Ganj, Chandigarh - 549898",32.00705306252541,72.30261026113031,2022-04-10 01:41:37,2024-09-01 14:27:47
358,Blue Bistro,"Beverages, Mexican, Continental",1908,9738927559,9:00 AM - 19:00 PM,11,Yes,Open,Basu Nagar,"Ground Floor, Basu Nagar, Chandigarh - 549898",10.941201273594016,84.58419802333776,2023-08-12 06:16:05,2024-07-29 17:08:11
359,Golden Eatery,"Bakery, Fast Food",1988,9113275526,12:00 AM - 21:00 PM,11,No,Closed,Karpe," Karpe, Chandigarh - 549898",23.65881070513443,80.67940396713028,2023-10-27 02:48:31,2025-01-11 20:37:42
360,Blue Restaurant,Pizza,1404,9725644753,7:00 AM - 17:00 PM,11,Yes,Open,Dyal Nagar," Dyal Nagar, Chandigarh - 549898",31.162705151356164,91.1330377453413,2023-11-05 18:08:54,2024-03-11 12:58:23
361,Pearl Table,"Beverages, Japanese",984,9803072911,10:00 AM - 21:00 PM,11,Yes,Open,Prabhakar Zila," Prabhakar Zila, Chandigarh - 549898",22.212961187168936,73.6163022388747,2023-01-21 11:56:13,2025-01-07 00:25:20
362,Blue Restaurant,"Burger, Desserts, South Indian",1010,9455939049,12:00 AM - 18:00 PM,11,Yes,Open,Madan Chowk,"Ground Floor, Madan Chowk, Chandigarh - 549898",30.175894739302777,94.98983876197101,2022-12-03 19:24:54,2024-03-15 18:18:03
363,Ruby Eatery,Mughlai,1874,9952177409,9:00 AM - 19:00 PM,11,Yes,Open,Batta,"Second Floor, Batta, Chandigarh - 549898",33.0111198034531,93.20260306131854,2023-03-30 22:21:47,2024-10-23 22:30:39
364,Diamond Bistro,Continental,815,9898567178,10:00 AM - 23:00 PM,11,Yes,Open,Sibal Ganj,"Second Floor, Sibal Ganj, Chandigarh - 549898",16.2670634454559,80.59886137598868,2023-01-08 16:36:51,2023-09-30 13:17:45
365,Diamond Bistro,Fast Food,632,9984730446,10:00 AM - 22:00 PM,11,No,Closed,Goda Nagar,"Third Floor, Goda Nagar, Chandigarh - 549898",30.577204220606696,93.45824510920895,2023-09-19 13:51:01,2024-02-14 00:40:17
366,Pearl Kitchen,"Mediterranean, Chinese, Lebanese",1653,9644167285,10:00 AM - 18:00 PM,11,Yes,Open,Bahl Marg," Bahl Marg, Chandigarh - 549898",34.0765116677078,69.5264699485913,2023-09-30 12:01:00,2024-04-01 19:38:53
367,Flavors Hub,South Indian,710,9135509761,10:00 AM - 17:00 PM,11,No,Closed,Bobal Path,"Second Floor, Bobal Path, Chandigarh - 549898",28.975311200425068,76.52205758144295,2022-10-27 17:31:13,2024-04-18 01:10:50
368,Pearl Bites,"Desserts, Italian, North Indian",695,9499933139,10:00 AM - 21:00 PM,11,No,Closed,Tella Zila,"Third Floor, Tella Zila, Chandigarh - 549898",13.585443869584761,93.55222603827211,2023-11-26 23:25:06,2025-01-31 04:31:41
369,Silver Table,"Street Food, Mediterranean",1915,9377733976,12:00 AM - 23:00 PM,11,Yes,Open,Bali Path,"Ground Floor, Bali Path, Chandigarh - 549898",16.724025791895052,79.73644989965511,2023-08-25 16:16:35,2023-10-04 17:36:31
370,Taste Junction,"Mexican, Thai, Pizza",1587,9321975705,9:00 AM - 22:00 PM,11,Yes,Open,Toor Ganj,"Third Floor, Toor Ganj, Chandigarh - 549898",23.387812025737233,93.38518450467042,2024-01-02 07:38:31,2024-07-14 16:36:04
371,Crystal House,Cafe,470,9795109916,8:00 AM - 21:00 PM,11,Yes,Open,Wali Path,"Ground Floor, Wali Path, Chandigarh - 549898",14.934084926320617,86.06821785669918,2022-06-02 11:42:15,2024-12-05 22:26:37
372,Urban Palace,"Japanese, Beverages, Desserts",1944,9474423649,10:00 AM - 19:00 PM,11,Yes,Open,Mane Chowk,"First Floor, Mane Chowk, Chandigarh - 549898",22.0275820525187,88.0339502648578,2022-07-08 06:57:11,2024-08-30 09:22:44
373,Pearl Garden,"Pizza, Italian",215,9649233665,12:00 AM - 23:00 PM,11,Yes,Open,Jayaraman Street,"Second Floor, Jayaraman Street, Chandigarh - 549898",24.794547823834343,85.65220608963355,2023-01-30 15:30:39,2023-07-07 11:12:07
374,Urban House,Cafe,330,9461081823,9:00 AM - 22:00 PM,13,Yes,Open,More Street,"Second Floor, More Street, Guwahati - 116814",33.55555472735345,76.15574422130149,2023-12-28 19:36:32,2024-10-05 02:33:24
375,Emerald Hub,"Lebanese, Mexican, Continental",1259,9921921869,8:00 AM - 17:00 PM,13,Yes,Open,Bala Street," Bala Street, Guwahati - 116814",20.1996740466914,77.8241728252588,2023-04-12 12:21:11,2023-05-25 14:41:36
376,Taste Palace,Cafe,805,9378556835,10:00 AM - 20:00 PM,13,Yes,Open,Wadhwa Nagar,"Third Floor, Wadhwa Nagar, Guwahati - 116814",29.91257719569888,85.34532670390135,2022-03-20 13:37:33,2023-07-11 13:46:47
377,Silver Junction,Mughlai,1687,9865974442,8:00 AM - 22:00 PM,13,Yes,Open,Char Zila," Char Zila, Guwahati - 116814",27.038756824426308,82.2822400095413,2023-09-21 17:19:24,2023-11-25 12:52:01
378,Diamond Eatery,"Lebanese, Mediterranean, Ice Cream",570,9415448230,7:00 AM - 20:00 PM,13,Yes,Open,Kadakia Road,"First Floor, Kadakia Road, Guwahati - 116814",30.034831633810953,89.40407848937971,2022-09-24 23:06:49,2024-06-04 12:12:32
379,Golden Corner,Mughlai,1540,9195884955,8:00 AM - 19:00 PM,13,Yes,Open,Anne Road,"First Floor, Anne Road, Guwahati - 116814",30.13092993681,77.46728449653456,2024-02-18 12:07:45,2024-12-07 11:40:05
380,Crystal Hub,"Street Food, Japanese",1399,9415734988,10:00 AM - 23:00 PM,13,Yes,Open,Sampath Zila,"Ground Floor, Sampath Zila, Guwahati - 116814",22.139667775983863,93.43553070472201,2023-06-01 08:21:41,2023-09-01 00:49:51
381,Silver Garden,"Chinese, Cafe, Mexican",1224,9228651382,12:00 AM - 20:00 PM,13,Yes,Open,Warrior," Warrior, Guwahati - 116814",17.11198801146993,70.24346926184552,2023-08-22 01:37:09,2024-10-08 04:06:58
382,Pearl Restaurant,Mexican,901,9539366395,11:00 AM - 20:00 PM,13,Yes,Open,Patil Road,"First Floor, Patil Road, Guwahati - 116814",17.638396963342302,89.13233442194152,2023-06-11 15:33:25,2024-06-18 18:16:52
383,Crystal Bistro,"Mughlai, Mediterranean",841,9781288086,7:00 AM - 17:00 PM,13,Yes,Open,Seth Circle,"Third Floor, Seth Circle, Guwahati - 116814",16.38701357628379,90.43206817868823,2024-03-01 18:36:56,2025-02-18 19:49:13
384,Taste Garden,Cafe,1808,9919876144,7:00 AM - 18:00 PM,13,Yes,Open,Sami Path," Sami Path, Guwahati - 116814",21.06437329722819,80.9596475919104,2022-04-29 17:43:09,2022-06-24 15:54:30
385,Blue Bites,"North Indian, South Indian",1293,9314119421,12:00 AM - 19:00 PM,13,Yes,Open,Ganesh,"Ground Floor, Ganesh, Guwahati - 116814",34.446586652164335,90.30800291924685,2023-12-16 02:59:01,2024-02-20 22:09:55
386,Golden Cafe,North Indian,1483,9887700486,8:00 AM - 18:00 PM,13,Yes,Open,Bhalla Street,"Second Floor, Bhalla Street, Guwahati - 116814",17.51309400621637,71.63231977634405,2022-09-02 18:25:48,2025-03-01 13:33:37
387,Golden Garden,"Mediterranean, Chinese",1887,9149089708,9:00 AM - 19:00 PM,13,Yes,Open,Sandal Road,"Third Floor, Sandal Road, Guwahati - 116814",29.652691814246936,85.7263611764726,2024-02-12 21:26:16,2024-06-14 08:06:14
388,Green Grill,"Continental, Mughlai, Cafe",935,9905430477,8:00 AM - 18:00 PM,13,Yes,Open,Aurora Chowk,"Third Floor, Aurora Chowk, Guwahati - 116814",8.958442207200928,75.10437492289148,2022-10-14 09:58:28,2023-01-21 21:56:03
389,Taste Cafe,"North Indian, Pizza, Bakery",546,9232244172,9:00 AM - 22:00 PM,13,Yes,Open,Parmar Nagar,"Ground Floor, Parmar Nagar, Guwahati - 116814",19.355619034134513,86.98116698453413,2022-08-03 06:09:20,2023-10-25 00:38:51
390,Crystal Table,"South Indian, Burger, Italian",1538,9997777024,7:00 AM - 17:00 PM,13,Yes,Open,Kota Chowk,"Ground Floor, Kota Chowk, Guwahati - 116814",20.56984650324268,79.5562449315834,2023-11-14 08:32:24,2024-06-07 10:23:18
391,Golden Diner,"Continental, Mexican",1623,9836307746,12:00 AM - 17:00 PM,13,No,Closed,Prasad Ganj,"Second Floor, Prasad Ganj, Guwahati - 116814",20.68944652766441,71.58297463703073,2022-07-13 22:01:03,2024-07-16 07:20:00
392,Golden Diner,"Burger, Continental, Beverages",1901,9212650803,11:00 AM - 22:00 PM,13,Yes,Open,Soni Path," Soni Path, Guwahati - 116814",11.837849398367387,71.95505837913528,2022-05-14 18:28:11,2024-09-21 22:23:50
393,Spice Bites,Burger,609,9935327024,9:00 AM - 23:00 PM,13,Yes,Open,Choudhry Nagar," Choudhry Nagar, Guwahati - 116814",36.81509589172048,78.91866843352555,2022-05-15 00:00:49,2024-12-20 02:28:48
394,Blue Diner,South Indian,1322,9632956813,8:00 AM - 22:00 PM,13,Yes,Open,Kapoor Nagar,"Third Floor, Kapoor Nagar, Guwahati - 116814",18.053625592943682,68.77816987308856,2022-06-04 16:35:51,2022-07-02 01:29:48
395,Diamond Bistro,Pizza,1570,9630540166,8:00 AM - 17:00 PM,13,Yes,Open,Vig Nagar," Vig Nagar, Guwahati - 116814",10.59140783792777,89.35810189315559,2023-01-11 09:40:57,2024-12-27 13:32:00
396,Ruby Diner,"Thai, Fast Food, Lebanese",740,9598514021,7:00 AM - 17:00 PM,13,No,Closed,Rajagopalan Road,"First Floor, Rajagopalan Road, Guwahati - 116814",33.92490111553505,93.03169997778306,2023-04-25 14:10:59,2023-04-28 20:51:21
397,Green Corner,"Mughlai, Beverages, Italian",394,9914115345,7:00 AM - 17:00 PM,13,Yes,Open,Ram Zila,"First Floor, Ram Zila, Guwahati - 116814",27.769966802732647,73.56812548997452,2023-10-06 05:11:02,2024-05-09 23:56:34
398,Green Hub,"Burger, Japanese",1999,9887125715,7:00 AM - 19:00 PM,13,Yes,Open,Mannan Marg,"Second Floor, Mannan Marg, Guwahati - 116814",13.739787072866369,80.1421980327155,2023-12-06 04:17:53,2024-10-08 22:51:23
399,Red Diner,"Cafe, Beverages",1528,9955675121,8:00 AM - 17:00 PM,13,Yes,Open,Wali Nagar,"First Floor, Wali Nagar, Guwahati - 116814",28.728160306894814,70.37435459624082,2024-01-11 12:43:35,2024-10-06 01:48:16
400,Pearl Restaurant,Beverages,1409,9618268171,11:00 AM - 22:00 PM,13,Yes,Open,Sheth Circle,"Third Floor, Sheth Circle, Guwahati - 116814",13.692808367689222,79.5418847437586,2022-10-25 13:05:52,2023-04-06 14:57:55
401,Green Garden,Continental,1189,9624117847,7:00 AM - 20:00 PM,13,Yes,Open,Behl Path,"Third Floor, Behl Path, Guwahati - 116814",9.742391901086364,76.1690473593734,2023-01-26 11:57:03,2024-05-11 17:48:49
402,Green Kitchen,"Bakery, Pizza, Thai",1571,9463247548,11:00 AM - 21:00 PM,13,No,Closed,Nadig Ganj," Nadig Ganj, Guwahati - 116814",11.181070442789487,87.59191365425224,2023-03-03 02:04:49,2024-12-24 11:07:44
403,Red Eatery,"Desserts, Continental, Ice Cream",1455,9158589922,7:00 AM - 22:00 PM,14,Yes,Open,Rout Zila,"First Floor, Rout Zila, Kochi - 277414",23.162573099034212,82.09819914118142,2022-06-10 05:06:21,2022-06-13 17:48:11
404,Red Junction,Chinese,1738,9627902980,9:00 AM - 18:00 PM,14,Yes,Open,Sabharwal Circle,"Second Floor, Sabharwal Circle, Kochi - 277414",36.72823542447529,70.13751289973283,2023-10-27 03:55:43,2024-10-27 23:17:11
405,Flavors Table,"Desserts, Burger, Thai",361,9592949064,10:00 AM - 23:00 PM,14,Yes,Open,Nadkarni Street," Nadkarni Street, Kochi - 277414",21.48447870142892,93.15562235028239,2022-08-30 10:07:49,2023-11-24 13:43:43
406,Red Eatery,Cafe,1726,9801553920,7:00 AM - 17:00 PM,14,Yes,Open,Dora Marg,"Third Floor, Dora Marg, Kochi - 277414",20.440285592126045,84.60609037560799,2023-05-25 06:01:17,2025-01-02 12:51:18
407,Royal Junction,Burger,1467,9784551346,9:00 AM - 21:00 PM,14,Yes,Open,Misra Street," Misra Street, Kochi - 277414",14.440056466417033,87.8705932857449,2022-09-24 21:37:12,2024-03-24 00:11:52
408,Green Eatery,Thai,1929,9587972689,9:00 AM - 21:00 PM,14,Yes,Open,Sama," Sama, Kochi - 277414",25.918573625501267,89.16058784508797,2023-06-16 01:51:44,2024-04-15 14:48:57
409,Green Palace,"Italian, Burger",1755,9807499502,8:00 AM - 17:00 PM,14,No,Closed,Kapadia Nagar,"Second Floor, Kapadia Nagar, Kochi - 277414",18.770058174674283,86.79102670240835,2023-05-19 01:33:33,2025-01-06 15:08:04
410,Crystal Diner,"Bakery, Street Food, Italian",293,9276260482,10:00 AM - 18:00 PM,14,Yes,Open,Keer Path,"Third Floor, Keer Path, Kochi - 277414",11.523275961169954,86.13981792325941,2023-01-17 02:46:50,2023-11-13 04:05:03
411,Flavors Bistro,"Mexican, Fast Food",1888,9939043773,8:00 AM - 22:00 PM,14,Yes,Open,Thakkar Path,"Second Floor, Thakkar Path, Kochi - 277414",11.546759820794767,80.53312835341383,2023-09-04 05:03:46,2024-12-05 17:10:32
412,Ruby House,"Pizza, Italian, Fast Food",1136,9807012492,11:00 AM - 21:00 PM,14,No,Closed,Wadhwa Path,"First Floor, Wadhwa Path, Kochi - 277414",36.54455888096837,68.82383926989066,2024-02-13 16:46:59,2024-03-30 20:47:21
413,Emerald Kitchen,"Beverages, Pizza, Cafe",1241,9938679870,8:00 AM - 22:00 PM,14,No,Closed,Shere," Shere, Kochi - 277414",13.470587889331906,91.97522059951201,2023-08-13 03:13:57,2024-06-21 14:04:09
414,Spice Grill,"Burger, Mughlai, Bakery",987,9549537843,11:00 AM - 22:00 PM,14,Yes,Open,Narayan Nagar,"First Floor, Narayan Nagar, Kochi - 277414",16.38899969471845,96.21059550075694,2023-04-05 18:51:00,2024-04-24 12:31:31
415,Urban Bites,Continental,1045,9746955700,12:00 AM - 22:00 PM,14,Yes,Open,Jaggi," Jaggi, Kochi - 277414",17.12826354069839,88.72766256213085,2022-11-21 21:53:06,2023-04-07 05:26:51
416,Pearl Eatery,"Ice Cream, Mexican, Pizza",629,9770194841,12:00 AM - 19:00 PM,14,Yes,Open,Dugar Nagar,"Second Floor, Dugar Nagar, Kochi - 277414",35.29879952097917,72.48777785127706,2023-12-11 14:39:48,2023-12-15 11:20:23
417,Emerald House,Bakery,1311,9845511804,12:00 AM - 19:00 PM,14,Yes,Open,Kari Marg,"Ground Floor, Kari Marg, Kochi - 277414",30.61463072512555,84.7531000369382,2022-08-30 05:43:25,2024-03-12 20:29:20
418,Silver Garden,"Beverages, Ice Cream, Lebanese",1997,9553533911,7:00 AM - 21:00 PM,14,Yes,Open,Solanki Street,"Ground Floor, Solanki Street, Kochi - 277414",9.137946524630586,72.84907761711631,2022-03-05 07:29:37,2023-11-30 06:12:47
419,Diamond Kitchen,Japanese,1736,9943458769,8:00 AM - 19:00 PM,14,Yes,Open,Mandal Zila,"Second Floor, Mandal Zila, Kochi - 277414",12.675708992108323,70.4710371234751,2023-05-19 21:57:08,2024-01-31 09:23:17
420,Crystal Diner,Ice Cream,266,9485132332,10:00 AM - 17:00 PM,14,Yes,Open,Mishra Path," Mishra Path, Kochi - 277414",33.74663291070878,89.81251030893486,2023-07-17 04:08:58,2024-12-06 16:41:43
421,Pearl Cafe,"Ice Cream, Desserts, Thai",1246,9942143413,12:00 AM - 19:00 PM,14,Yes,Open,Khatri Marg,"Ground Floor, Khatri Marg, Kochi - 277414",35.453356486128364,79.76468521872883,2023-05-06 11:31:49,2024-01-05 05:04:25
422,Crystal House,"Ice Cream, South Indian",226,9898509546,9:00 AM - 18:00 PM,14,Yes,Open,Mukherjee Marg," Mukherjee Marg, Kochi - 277414",33.770418870471474,93.26569728398226,2023-04-10 00:02:04,2024-09-16 00:06:42
423,Red Junction,Street Food,1746,9731773948,11:00 AM - 22:00 PM,14,Yes,Open,Taneja," Taneja, Kochi - 277414",14.136897187407946,89.39630956635233,2022-10-26 10:11:02,2023-07-25 04:51:53
424,Flavors Diner,"Mediterranean, Chinese",582,9286611097,12:00 AM - 21:00 PM,14,Yes,Open,Kara Nagar,"Ground Floor, Kara Nagar, Kochi - 277414",19.414188229937253,80.93389810114097,2023-04-14 09:43:41,2023-10-09 22:12:25
425,Golden Diner,Mediterranean,1396,9373821508,7:00 AM - 19:00 PM,14,Yes,Open,Chowdhury Circle,"Third Floor, Chowdhury Circle, Kochi - 277414",29.12292745243637,73.11970267214107,2023-05-13 22:28:39,2023-11-28 16:44:30
426,Taste Hub,"Burger, South Indian",1784,9771482340,11:00 AM - 23:00 PM,14,Yes,Open,Dani,"Second Floor, Dani, Kochi - 277414",22.724087481687356,85.04992808034325,2022-07-18 01:31:42,2022-09-11 01:35:46
427,Green Bistro,"Mughlai, Bakery, Thai",576,9658996745,7:00 AM - 23:00 PM,14,Yes,Open,Choudhury Ganj," Choudhury Ganj, Kochi - 277414",13.053618381509128,84.20493842760008,2022-12-26 00:07:08,2025-03-02 15:50:41
428,Blue Bistro,"Thai, Mexican",1558,9456357211,9:00 AM - 19:00 PM,14,Yes,Open,Bora Ganj,"Second Floor, Bora Ganj, Kochi - 277414",14.778602344907831,90.18831993678145,2022-11-22 23:34:33,2024-06-05 13:22:21
429,Golden Bites,"North Indian, Italian, Street Food",1112,9358071565,12:00 AM - 21:00 PM,14,Yes,Open,Shan Path," Shan Path, Kochi - 277414",15.519753184913004,69.83849544254572,2022-05-03 08:55:54,2024-01-15 08:18:29
430,Green Grill,Desserts,725,9680075399,12:00 AM - 19:00 PM,15,Yes,Open,Char Marg,"Ground Floor, Char Marg, Indore - 466778",35.01100905755565,92.17121378405103,2023-10-29 01:00:50,2024-09-20 12:13:09
431,Green Table,"Fast Food, Cafe, South Indian",807,9799573076,8:00 AM - 19:00 PM,15,Yes,Open,Sharaf Zila," Sharaf Zila, Indore - 466778",10.804487083016227,71.43955610751452,2022-11-11 08:56:32,2024-09-27 22:30:12
432,Crystal Table,"North Indian, Chinese, Mexican",1572,9775936026,8:00 AM - 23:00 PM,15,Yes,Open,Bhatti Nagar,"Third Floor, Bhatti Nagar, Indore - 466778",32.80142027016478,74.56929666588368,2022-10-14 07:59:20,2025-02-13 19:00:40
433,Pearl Palace,"Beverages, Chinese, Continental",248,9593089342,12:00 AM - 19:00 PM,15,Yes,Open,Khosla Marg,"Ground Floor, Khosla Marg, Indore - 466778",10.955610219678599,70.24935342395064,2022-10-09 18:38:29,2024-08-10 02:04:13
434,Crystal Diner,"Chinese, Pizza, Thai",729,9537692362,10:00 AM - 20:00 PM,15,Yes,Open,Jayaraman Zila,"Third Floor, Jayaraman Zila, Indore - 466778",21.04433101146671,69.18223714508323,2023-08-29 06:35:17,2023-11-10 16:24:57
435,Diamond Bistro,"North Indian, Chinese, South Indian",1635,9177942327,9:00 AM - 21:00 PM,15,Yes,Open,Rao Chowk,"Ground Floor, Rao Chowk, Indore - 466778",16.86322868598434,88.28183571587178,2023-04-08 05:28:11,2023-06-22 05:20:59
436,Silver Bistro,"Fast Food, Desserts",1009,9982747173,12:00 AM - 17:00 PM,15,Yes,Open,Nath Nagar,"Third Floor, Nath Nagar, Indore - 466778",12.964645445177396,74.97716646189757,2023-08-14 04:58:55,2024-10-09 21:14:15
437,Emerald Grill,"Lebanese, Continental, Burger",1587,9953643130,12:00 AM - 22:00 PM,15,Yes,Open,Menon Street,"Second Floor, Menon Street, Indore - 466778",36.35583615395711,69.01833843181369,2023-10-19 15:35:01,2024-12-05 15:57:30
438,Pearl Table,Italian,285,9105400747,11:00 AM - 21:00 PM,15,Yes,Open,Das Circle,"Third Floor, Das Circle, Indore - 466778",24.08483981779026,95.73626156248429,2023-04-05 03:25:42,2025-02-24 01:48:01
439,Urban Cafe,"Street Food, Mexican, Beverages",1522,9650349270,8:00 AM - 18:00 PM,15,Yes,Open,Radhakrishnan Path,"First Floor, Radhakrishnan Path, Indore - 466778",14.847008705236313,92.53206587408317,2023-01-05 08:27:13,2024-04-23 14:10:06
440,Flavors Bistro,Pizza,1945,9158398995,11:00 AM - 20:00 PM,15,Yes,Open,Nagi Ganj," Nagi Ganj, Indore - 466778",10.535821507029667,87.87661386224036,2023-05-22 18:29:29,2024-11-29 18:46:52
441,Urban Bistro,Pizza,1197,9455248480,9:00 AM - 18:00 PM,15,Yes,Open,Roy Street,"First Floor, Roy Street, Indore - 466778",11.32131567244235,86.38717543775621,2023-04-26 07:18:27,2024-08-05 10:07:13
442,Ruby Cafe,"Cafe, Fast Food",872,9761792646,12:00 AM - 19:00 PM,15,No,Closed,Karnik Chowk," Karnik Chowk, Indore - 466778",12.849932891980696,84.88390704435324,2023-08-14 22:01:00,2023-11-12 05:13:12
443,Crystal Eatery,"Mediterranean, North Indian",841,9364328543,8:00 AM - 22:00 PM,15,Yes,Open,Kaur Road,"Third Floor, Kaur Road, Indore - 466778",16.47905118265162,78.96332529287362,2022-12-02 15:26:11,2023-03-27 13:45:06
444,Diamond Palace,"Cafe, Fast Food",1112,9485195859,9:00 AM - 20:00 PM,15,Yes,Open,Bhagat Road," Bhagat Road, Indore - 466778",11.57791297981507,87.13049829653815,2024-02-13 14:00:21,2024-05-27 07:50:28
445,Spice Junction,"Continental, Ice Cream",602,9382646055,12:00 AM - 22:00 PM,15,Yes,Open,Bail Street,"Ground Floor, Bail Street, Indore - 466778",29.640820722294443,94.16960302130799,2023-11-03 05:35:37,2025-02-08 13:47:56
446,Pearl Table,"North Indian, Pizza, Desserts",1775,9733546669,8:00 AM - 17:00 PM,15,No,Closed,Varkey Marg," Varkey Marg, Indore - 466778",16.00999658606428,94.22329843128986,2023-01-14 01:35:27,2023-04-19 10:10:01
447,Golden Bites,"Continental, Street Food, Desserts",657,9929084214,11:00 AM - 22:00 PM,15,No,Closed,Mitter Circle,"Second Floor, Mitter Circle, Indore - 466778",12.309332775840709,83.0070665428211,2023-09-26 09:27:31,2023-11-13 07:44:39
448,Spice Grill,"Bakery, North Indian",1557,9356496309,11:00 AM - 22:00 PM,15,Yes,Open,Bajaj Street,"First Floor, Bajaj Street, Indore - 466778",30.510417281186513,72.70758327535982,2023-11-09 21:03:39,2024-05-07 12:16:54
449,Taste Restaurant,"Pizza, Continental, Cafe",934,9143400463,8:00 AM - 23:00 PM,15,Yes,Open,Saini Chowk,"Third Floor, Saini Chowk, Indore - 466778",15.167097302046017,76.24739563612174,2023-03-28 05:15:08,2025-01-28 03:52:17
450,Flavors Kitchen,"Mexican, Bakery, Street Food",994,9604308858,10:00 AM - 17:00 PM,15,Yes,Open,Nayak Path,"Ground Floor, Nayak Path, Indore - 466778",37.033221636242594,77.95223019232657,2023-08-14 22:38:21,2024-06-05 15:21:54
451,Emerald Table,"Japanese, Burger, Ice Cream",1367,9286669820,10:00 AM - 22:00 PM,15,Yes,Open,Magar Nagar,"Third Floor, Magar Nagar, Indore - 466778",19.066665917338593,87.35275840419806,2024-02-29 08:57:08,2024-05-03 03:13:48
452,Pearl Bistro,"Japanese, Desserts, Thai",1257,9535769745,9:00 AM - 23:00 PM,15,Yes,Open,Mane Path,"Second Floor, Mane Path, Indore - 466778",22.61635763008593,82.46424306130974,2023-03-03 01:05:48,2025-01-23 02:09:40
453,Silver Kitchen,"Continental, Fast Food, Mediterranean",671,9182772849,11:00 AM - 22:00 PM,15,Yes,Open,Agrawal Circle,"Second Floor, Agrawal Circle, Indore - 466778",14.57629944076404,74.03615704434031,2023-12-09 05:13:56,2024-04-23 10:31:45
454,Green Garden,"Italian, Thai, Beverages",1861,9454576141,12:00 AM - 17:00 PM,15,No,Closed,Mistry Road,"Third Floor, Mistry Road, Indore - 466778",28.116699248413646,82.3760542140573,2023-05-26 17:23:44,2024-12-18 19:37:52
455,Silver Restaurant,"Beverages, North Indian, Thai",288,9237315592,11:00 AM - 21:00 PM,15,Yes,Open,Purohit Street,"First Floor, Purohit Street, Indore - 466778",12.3339422016038,83.33595239683166,2024-01-31 11:01:57,2024-04-02 13:51:01
456,Ruby Garden,South Indian,540,9377304178,8:00 AM - 21:00 PM,15,Yes,Open,Golla Chowk,"Third Floor, Golla Chowk, Indore - 466778",25.901239665611946,84.7909142516861,2022-06-20 21:38:41,2022-08-09 05:09:32
457,Royal Hub,"Lebanese, Chinese, Mexican",1119,9751252216,10:00 AM - 23:00 PM,15,Yes,Open,Anand Road,"Third Floor, Anand Road, Indore - 466778",13.380550092499131,92.40688005780721,2022-12-16 05:52:03,2024-06-28 01:04:39
458,Silver Restaurant,"Mediterranean, Bakery, Japanese",543,9877589651,12:00 AM - 19:00 PM,15,Yes,Open,Agarwal Path,"Third Floor, Agarwal Path, Indore - 466778",25.8187741849229,70.66546471052754,2023-06-24 00:17:02,2023-11-22 19:12:36
459,Blue Grill,Italian,233,9317270101,11:00 AM - 23:00 PM,15,Yes,Open,Sarin Circle," Sarin Circle, Indore - 466778",28.383540671005953,92.29697999857345,2024-01-26 12:39:15,2024-05-15 15:54:11
460,Silver Bistro,Cafe,1459,9744045166,7:00 AM - 23:00 PM,15,Yes,Open,Thaker Street," Thaker Street, Indore - 466778",23.097212877643017,72.0550934077097,2022-12-23 16:54:13,2023-12-03 19:01:02
461,Red House,Burger,1304,9988544746,7:00 AM - 23:00 PM,15,Yes,Open,Yogi Nagar,"Third Floor, Yogi Nagar, Indore - 466778",23.643691506117385,79.27427620460267,2023-08-17 02:05:59,2023-09-06 03:59:45
462,Royal Palace,"Beverages, Thai, Cafe",1817,9925354925,10:00 AM - 19:00 PM,15,Yes,Open,Pathak Zila," Pathak Zila, Indore - 466778",31.894934335713877,94.61937092685659,2023-05-23 03:21:49,2024-08-07 14:19:37
463,Pearl Palace,"Italian, Beverages, Continental",721,9612326496,8:00 AM - 23:00 PM,15,Yes,Open,Mohan Chowk,"Ground Floor, Mohan Chowk, Indore - 466778",16.67138670586151,93.73167824166656,2023-12-01 15:48:17,2023-12-30 21:29:20
464,Blue Diner,North Indian,1652,9898483467,7:00 AM - 21:00 PM,15,Yes,Open,Rao Circle," Rao Circle, Indore - 466778",11.84059523624961,68.9053901974641,2023-12-29 00:47:00,2024-11-29 17:29:40
465,Diamond Cafe,"Mughlai, Beverages, Street Food",418,9266192234,10:00 AM - 22:00 PM,15,No,Closed,Buch Zila," Buch Zila, Indore - 466778",15.806075605973934,93.10959124494936,2023-07-20 08:58:38,2024-04-25 20:00:50
